{"business_id":"Pns2l4eNsfO8kk83dixA6A","name":"Abby Rappoport, LAC, CMQ","address":"1616 Chapala St, Ste 2","city":"Santa Barbara","state":"CA","postal_code":"93101","latitude":34.4266787,"longitude":-119.7111968,"stars":5.0,"review_count":7,"is_open":0,"attributes":{"ByAppointmentOnly":"True"},"categories":"Doctors, Traditional Chinese Medicine, Naturopathic\/Holistic, Acupuncture, Health & Medical, Nutritionists","hours":null}
{"business_id":"mpf3x-BjTdTEA3yCZrAYPw","name":"The UPS Store","address":"87 Grasso Plaza Shopping Center","city":"Affton","state":"MO","postal_code":"63123","latitude":38.551126,"longitude":-90.335695,"stars":3.0,"review_count":15,"is_open":1,"attributes":{"BusinessAcceptsCreditCards":"True"},"categories":"Shipping Centers, Local Services, Notaries, Mailbox Centers, Printing Services","hours":{"Monday":"0:0-0:0","Tuesday":"8:0-18:30","Wednesday":"8:0-18:30","Thursday":"8:0-18:30","Friday":"8:0-18:30","Saturday":"8:0-14:0"}}
{"business_id":"tUFrWirKiKi_TAnsVWINQQ","name":"Target","address":"5255 E Broadway Blvd","city":"Tucson","state":"AZ","postal_code":"85711","latitude":32.223236,"longitude":-110.880452,"stars":3.5,"review_count":22,"is_open":0,"attributes":{"BikeParking":"True","BusinessAcceptsCreditCards":"True","RestaurantsPriceRange2":"2","CoatCheck":"False","RestaurantsTakeOut":"False","RestaurantsDelivery":"False","Caters":"False","WiFi":"u'no'","BusinessParking":"{'garage': False, 'street': False, 'validated': False, 'lot': True, 'valet': False}","WheelchairAccessible":"True","HappyHour":"False","OutdoorSeating":"False","HasTV":"False","RestaurantsReservations":"False","DogsAllowed":"False","ByAppointmentOnly":"False"},"categories":"Department Stores, Shopping, Fashion, Home & Garden, Electronics, Furniture Stores","hours":{"Monday":"8:0-22:0","Tuesday":"8:0-22:0","Wednesday":"8:0-22:0","Thursday":"8:0-22:0","Friday":"8:0-23:0","Saturday":"8:0-23:0","Sunday":"8:0-22:0"}}
{"business_id":"MTSW4McQd7CbVtyjqoe9mw","name":"St Honore Pastries","address":"935 Race St","city":"Philadelphia","state":"PA","postal_code":"19107","latitude":39.9555052,"longitude":-75.1555641,"stars":4.0,"review_count":80,"is_open":1,"attributes":{"RestaurantsDelivery":"False","OutdoorSeating":"False","BusinessAcceptsCreditCards":"False","BusinessParking":"{'garage': False, 'street': True, 'validated': False, 'lot': False, 'valet': False}","BikeParking":"True","RestaurantsPriceRange2":"1","RestaurantsTakeOut":"True","ByAppointmentOnly":"False","WiFi":"u'free'","Alcohol":"u'none'","Caters":"True"},"categories":"Restaurants, Food, Bubble Tea, Coffee & Tea, Bakeries","hours":{"Monday":"7:0-20:0","Tuesday":"7:0-20:0","Wednesday":"7:0-20:0","Thursday":"7:0-20:0","Friday":"7:0-21:0","Saturday":"7:0-21:0","Sunday":"7:0-21:0"}}
{"business_id":"mWMc6_wTdE0EUBKIGXDVfA","name":"Perkiomen Valley Brewery","address":"101 Walnut St","city":"Green Lane","state":"PA","postal_code":"18054","latitude":40.3381827,"longitude":-75.4716585,"stars":4.5,"review_count":13,"is_open":1,"attributes":{"BusinessAcceptsCreditCards":"True","WheelchairAccessible":"True","RestaurantsTakeOut":"True","BusinessParking":"{'garage': None, 'street': None, 'validated': None, 'lot': True, 'valet': False}","BikeParking":"True","GoodForKids":"True","Caters":"False"},"categories":"Brewpubs, Breweries, Food","hours":{"Wednesday":"14:0-22:0","Thursday":"16:0-22:0","Friday":"12:0-22:0","Saturday":"12:0-22:0","Sunday":"12:0-18:0"}}
{"business_id":"CF33F8-E6oudUQ46HnavjQ","name":"Sonic Drive-In","address":"615 S Main St","city":"Ashland City","state":"TN","postal_code":"37015","latitude":36.269593,"longitude":-87.058943,"stars":2.0,"review_count":6,"is_open":1,"attributes":{"BusinessParking":"None","BusinessAcceptsCreditCards":"True","RestaurantsAttire":"u'casual'","OutdoorSeating":"True","RestaurantsReservations":"False","Caters":"False","RestaurantsTakeOut":"True","Alcohol":"u'none'","Ambience":"None","GoodForKids":"True","RestaurantsPriceRange2":"1","ByAppointmentOnly":"False","CoatCheck":"False","DogsAllowed":"False","RestaurantsTableService":"False","RestaurantsGoodForGroups":"True","RestaurantsDelivery":"True","WiFi":"u'no'","WheelchairAccessible":"True","HasTV":"True","HappyHour":"False","DriveThru":"True","BikeParking":"False"},"categories":"Burgers, Fast Food, Sandwiches, Food, Ice Cream & Frozen Yogurt, Restaurants","hours":{"Monday":"0:0-0:0","Tuesday":"6:0-22:0","Wednesday":"6:0-22:0","Thursday":"6:0-22:0","Friday":"9:0-0:0","Saturday":"9:0-22:0","Sunday":"8:0-22:0"}}
{"business_id":"n_0UpQx1hsNbnPUSlodU8w","name":"Famous Footwear","address":"8522 Eager Road, Dierbergs Brentwood Point","city":"Brentwood","state":"MO","postal_code":"63144","latitude":38.627695,"longitude":-90.340465,"stars":2.5,"review_count":13,"is_open":1,"attributes":{"BusinessAcceptsCreditCards":"True","RestaurantsPriceRange2":"2","BikeParking":"True","BusinessParking":"{'garage': False, 'street': False, 'validated': False, 'lot': True, 'valet': False}"},"categories":"Sporting Goods, Fashion, Shoe Stores, Shopping, Sports Wear, Accessories","hours":{"Monday":"0:0-0:0","Tuesday":"10:0-18:0","Wednesday":"10:0-18:0","Thursday":"10:0-18:0","Friday":"10:0-18:0","Saturday":"10:0-18:0","Sunday":"12:0-18:0"}}
{"business_id":"qkRM_2X51Yqxk3btlwAQIg","name":"Temple Beth-El","address":"400 Pasadena Ave S","city":"St. Petersburg","state":"FL","postal_code":"33707","latitude":27.76659,"longitude":-82.732983,"stars":3.5,"review_count":5,"is_open":1,"attributes":null,"categories":"Synagogues, Religious Organizations","hours":{"Monday":"9:0-17:0","Tuesday":"9:0-17:0","Wednesday":"9:0-17:0","Thursday":"9:0-17:0","Friday":"9:0-17:0"}}
{"business_id":"k0hlBqXX-Bt0vf1op7Jr1w","name":"Tsevi's Pub And Grill","address":"8025 Mackenzie Rd","city":"Affton","state":"MO","postal_code":"63123","latitude":38.5651648,"longitude":-90.3210868,"stars":3.0,"review_count":19,"is_open":0,"attributes":{"Caters":"True","Alcohol":"u'full_bar'","RestaurantsAttire":"u'casual'","RestaurantsDelivery":"False","RestaurantsTakeOut":"True","HasTV":"True","NoiseLevel":"u'average'","BusinessAcceptsCreditCards":"True","OutdoorSeating":"True","BusinessParking":"{'garage': False, 'street': False, 'validated': False, 'lot': True, 'valet': False}","Ambience":"{'romantic': False, 'intimate': False, 'touristy': False, 'hipster': False, 'divey': False, 'classy': False, 'trendy': False, 'upscale': False, 'casual': False}","RestaurantsPriceRange2":"1","GoodForKids":"True","WiFi":"u'free'","RestaurantsReservations":"False","RestaurantsGoodForGroups":"True"},"categories":"Pubs, Restaurants, Italian, Bars, American (Traditional), Nightlife, Greek","hours":null}
{"business_id":"bBDDEgkFA1Otx9Lfe7BZUQ","name":"Sonic Drive-In","address":"2312 Dickerson Pike","city":"Nashville","state":"TN","postal_code":"37207","latitude":36.2081024,"longitude":-86.7681696,"stars":1.5,"review_count":10,"is_open":1,"attributes":{"RestaurantsAttire":"'casual'","RestaurantsGoodForGroups":"False","BusinessAcceptsCreditCards":"True","OutdoorSeating":"True","GoodForKids":"True","Alcohol":"u'none'","BusinessParking":"{'garage': False, 'street': False, 'validated': False, 'lot': False, 'valet': False}","DogsAllowed":"False","RestaurantsTableService":"False","ByAppointmentOnly":"False","WiFi":"u'no'","RestaurantsPriceRange2":"1","RestaurantsReservations":"False","HasTV":"True","RestaurantsDelivery":"True","CoatCheck":"False","Caters":"False","RestaurantsTakeOut":"True","DriveThru":"True","HappyHour":"False","WheelchairAccessible":"True"},"categories":"Ice Cream & Frozen Yogurt, Fast Food, Burgers, Restaurants, Food","hours":{"Monday":"0:0-0:0","Tuesday":"6:0-21:0","Wednesday":"6:0-21:0","Thursday":"6:0-16:0","Friday":"6:0-16:0","Saturday":"6:0-17:0","Sunday":"6:0-21:0"}}
{"business_id":"UJsufbvfyfONHeWdvAHKjA","name":"Marshalls","address":"21705 Village Lakes Sc Dr","city":"Land O' Lakes","state":"FL","postal_code":"34639","latitude":28.1904587953,"longitude":-82.4573802199,"stars":3.5,"review_count":6,"is_open":1,"attributes":{"RestaurantsPriceRange2":"2","BikeParking":"True","BusinessAcceptsCreditCards":"True","BusinessParking":"{'garage': False, 'street': False, 'validated': False, 'lot': False, 'valet': False}"},"categories":"Department Stores, Shopping, Fashion","hours":{"Monday":"9:30-21:30","Tuesday":"9:30-21:30","Wednesday":"9:30-21:30","Thursday":"9:30-21:30","Friday":"9:30-21:30","Saturday":"9:30-21:30","Sunday":"10:0-20:0"}}
{"business_id":"eEOYSgkmpB90uNA7lDOMRA","name":"Vietnamese Food Truck","address":"","city":"Tampa Bay","state":"FL","postal_code":"33602","latitude":27.9552692,"longitude":-82.4563199,"stars":4.0,"review_count":10,"is_open":1,"attributes":{"Alcohol":"'none'","OutdoorSeating":"None","RestaurantsReservations":"False","Ambience":"{'touristy': False, 'hipster': False, 'romantic': False, 'divey': False, 'intimate': False, 'trendy': False, 'upscale': False, 'classy': False, 'casual': False}","GoodForMeal":"{'dessert': False, 'latenight': False, 'lunch': False, 'dinner': False, 'brunch': False, 'breakfast': False}","BusinessParking":"{'garage': False, 'street': False, 'validated': False, 'lot': False, 'valet': False}"},"categories":"Vietnamese, Food, Restaurants, Food Trucks","hours":{"Monday":"11:0-14:0","Tuesday":"11:0-14:0","Wednesday":"11:0-14:0","Thursday":"11:0-14:0","Friday":"11:0-14:0","Saturday":"5:0-10:0","Sunday":"15:0-18:0"}}
{"business_id":"il_Ro8jwPlHresjw9EGmBg","name":"Denny's","address":"8901 US 31 S","city":"Indianapolis","state":"IN","postal_code":"46227","latitude":39.6371332838,"longitude":-86.127217412,"stars":2.5,"review_count":28,"is_open":1,"attributes":{"RestaurantsReservations":"False","RestaurantsTakeOut":"True","RestaurantsAttire":"'casual'","GoodForKids":"True","BikeParking":"False","RestaurantsPriceRange2":"1","BusinessAcceptsCreditCards":"True","GoodForMeal":"{'dessert': False, 'latenight': False, 'lunch': False, 'dinner': False, 'brunch': False, 'breakfast': False}","RestaurantsGoodForGroups":"True","OutdoorSeating":"False","WiFi":"u'no'","Alcohol":"'none'","RestaurantsDelivery":"True","BusinessParking":"{'garage': None, 'street': False, 'validated': None, 'lot': True, 'valet': False}","HasTV":"True","Ambience":"{'touristy': None, 'hipster': None, 'romantic': False, 'divey': None, 'intimate': None, 'trendy': None, 'upscale': None, 'classy': None, 'casual': True}"},"categories":"American (Traditional), Restaurants, Diners, Breakfast & Brunch","hours":{"Monday":"6:0-22:0","Tuesday":"6:0-22:0","Wednesday":"6:0-22:0","Thursday":"6:0-22:0","Friday":"6:0-22:0","Saturday":"6:0-22:0","Sunday":"6:0-22:0"}}
{"business_id":"jaxMSoInw8Poo3XeMJt8lQ","name":"Adams Dental","address":"15 N Missouri Ave","city":"Clearwater","state":"FL","postal_code":"33755","latitude":27.966235,"longitude":-82.787412,"stars":5.0,"review_count":10,"is_open":1,"attributes":{"ByAppointmentOnly":"True"},"categories":"General Dentistry, Dentists, Health & Medical, Cosmetic Dentists","hours":{"Monday":"7:30-15:30","Tuesday":"7:30-15:30","Wednesday":"7:30-15:30","Thursday":"7:30-15:30"}}
{"business_id":"0bPLkL0QhhPO5kt1_EXmNQ","name":"Zio's Italian Market","address":"2575 E Bay Dr","city":"Largo","state":"FL","postal_code":"33771","latitude":27.9161159,"longitude":-82.7604608,"stars":4.5,"review_count":100,"is_open":0,"attributes":{"OutdoorSeating":"False","RestaurantsGoodForGroups":"False","WiFi":"u'no'","RestaurantsPriceRange2":"1","RestaurantsDelivery":"True","RestaurantsAttire":"u'casual'","BusinessAcceptsCreditCards":"True","RestaurantsTakeOut":"True","Caters":"True","NoiseLevel":"u'average'","Ambience":"{'romantic': False, 'intimate': False, 'touristy': False, 'hipster': False, 'divey': False, 'classy': False, 'trendy': False, 'upscale': False, 'casual': True}","GoodForKids":"True","BusinessAcceptsBitcoin":"False","BusinessParking":"{'garage': False, 'street': False, 'validated': False, 'lot': True, 'valet': False}","BikeParking":"True","RestaurantsTableService":"False","Alcohol":"u'none'","RestaurantsReservations":"False","GoodForMeal":"{'dessert': False, 'latenight': False, 'lunch': True, 'dinner': False, 'brunch': False, 'breakfast': False}","HasTV":"True","WheelchairAccessible":"True"},"categories":"Food, Delis, Italian, Bakeries, Restaurants","hours":{"Monday":"10:0-18:0","Tuesday":"10:0-20:0","Wednesday":"10:0-20:0","Thursday":"10:0-20:0","Friday":"10:0-20:0","Saturday":"10:0-20:0"}}
{"business_id":"MUTTqe8uqyMdBl186RmNeA","name":"Tuna Bar","address":"205 Race St","city":"Philadelphia","state":"PA","postal_code":"19106","latitude":39.953949,"longitude":-75.1432262,"stars":4.0,"review_count":245,"is_open":1,"attributes":{"RestaurantsReservations":"True","RestaurantsGoodForGroups":"True","RestaurantsAttire":"'casual'","BusinessAcceptsCreditCards":"True","WiFi":"'free'","HasTV":"False","RestaurantsTakeOut":"True","Ambience":"{'touristy': False, 'hipster': False, 'romantic': False, 'divey': False, 'intimate': False, 'trendy': False, 'upscale': False, 'classy': True, 'casual': False}","GoodForKids":"False","GoodForMeal":"{'dessert': True, 'latenight': None, 'lunch': None, 'dinner': True, 'brunch': None, 'breakfast': None}","NoiseLevel":"u'average'","RestaurantsPriceRange2":"2","Alcohol":"'full_bar'","DogsAllowed":"False","HappyHour":"True","RestaurantsDelivery":"True","WheelchairAccessible":"True","OutdoorSeating":"True","RestaurantsTableService":"True","BusinessParking":"{u'valet': False, u'garage': None, u'street': True, u'lot': False, u'validated': None}"},"categories":"Sushi Bars, Restaurants, Japanese","hours":{"Tuesday":"13:30-22:0","Wednesday":"13:30-22:0","Thursday":"13:30-22:0","Friday":"13:30-23:0","Saturday":"13:30-23:0","Sunday":"13:30-22:0"}}
{"business_id":"rBmpy_Y1UbBx8ggHlyb7hA","name":"Arizona Truck Outfitters","address":"625 N Stone Ave","city":"Tucson","state":"AZ","postal_code":"85705","latitude":32.2298719,"longitude":-110.9723419,"stars":4.5,"review_count":10,"is_open":1,"attributes":{"DriveThru":"False","BusinessAcceptsCreditCards":"True","WiFi":"u'free'","ByAppointmentOnly":"False"},"categories":"Automotive, Auto Parts & Supplies, Auto Customization","hours":{"Monday":"0:0-0:0","Tuesday":"8:0-17:0","Wednesday":"8:0-17:0","Thursday":"8:0-17:0","Friday":"8:0-17:0","Saturday":"8:0-14:0","Sunday":"0:0-0:0"}}
{"business_id":"M0XSSHqrASOnhgbWDJIpQA","name":"Herb Import Co","address":"712 Adams St","city":"New Orleans","state":"LA","postal_code":"70118","latitude":29.9414679565,"longitude":-90.129952757,"stars":4.0,"review_count":5,"is_open":1,"attributes":{"BusinessParking":"{'garage': False, 'street': True, 'validated': False, 'lot': False, 'valet': False}","BusinessAcceptsCreditCards":"True","RestaurantsPriceRange2":"2","BikeParking":"True"},"categories":"Vape Shops, Tobacco Shops, Personal Shopping, Vitamins & Supplements, Shopping","hours":{"Monday":"10:0-19:0","Tuesday":"10:0-19:0","Wednesday":"10:0-19:0","Thursday":"10:0-19:0","Friday":"10:0-19:0","Saturday":"10:0-19:0","Sunday":"10:0-19:0"}}
{"business_id":"8wGISYjYkE2tSqn3cDMu8A","name":"Nifty Car Rental","address":"1241 Airline Dr","city":"Kenner","state":"LA","postal_code":"70062","latitude":29.981183,"longitude":-90.2540123,"stars":3.5,"review_count":14,"is_open":1,"attributes":null,"categories":"Automotive, Car Rental, Hotels & Travel, Truck Rental","hours":{"Monday":"8:0-17:0","Tuesday":"8:0-17:0","Wednesday":"8:0-17:0","Thursday":"8:0-17:0","Friday":"8:0-17:0","Saturday":"9:0-15:0","Sunday":"9:0-12:0"}}
{"business_id":"ROeacJQwBeh05Rqg7F6TCg","name":"BAP","address":"1224 South St","city":"Philadelphia","state":"PA","postal_code":"19147","latitude":39.943223,"longitude":-75.162568,"stars":4.5,"review_count":205,"is_open":1,"attributes":{"NoiseLevel":"u'quiet'","GoodForMeal":"{'dessert': False, 'latenight': False, 'lunch': True, 'dinner': True, 'brunch': False, 'breakfast': False}","RestaurantsGoodForGroups":"False","RestaurantsTableService":"True","WiFi":"u'no'","GoodForKids":"True","Alcohol":"u'none'","RestaurantsPriceRange2":"1","RestaurantsAttire":"u'casual'","BikeParking":"True","BusinessParking":"{'garage': False, 'street': True, 'validated': False, 'lot': False, 'valet': False}","Caters":"True","RestaurantsReservations":"False","HasTV":"True","BusinessAcceptsCreditCards":"True","OutdoorSeating":"None","Ambience":"{'touristy': False, 'hipster': False, 'romantic': False, 'divey': False, 'intimate': None, 'trendy': False, 'upscale': False, 'classy': False, 'casual': True}","RestaurantsDelivery":"None","RestaurantsTakeOut":"True"},"categories":"Korean, Restaurants","hours":{"Monday":"11:30-20:30","Tuesday":"11:30-20:30","Wednesday":"11:30-20:30","Thursday":"11:30-20:30","Friday":"11:30-20:30","Saturday":"11:30-20:30"}}
{"business_id":"WKMJwqnfZKsAae75RMP6jA","name":"Roast Coffeehouse and Wine Bar","address":"10359 104 Street NW","city":"Edmonton","state":"AB","postal_code":"T5J 1B9","latitude":53.5460453,"longitude":-113.4991693,"stars":4.0,"review_count":40,"is_open":0,"attributes":{"OutdoorSeating":"False","Caters":"True","RestaurantsDelivery":"False","RestaurantsGoodForGroups":"True","RestaurantsPriceRange2":"2","RestaurantsReservations":"False","BusinessParking":"{'garage': False, 'street': True, 'validated': False, 'lot': True, 'valet': False}","HasTV":"False","GoodForKids":"False","RestaurantsTakeOut":"True","WiFi":"u'free'","NoiseLevel":"u'average'","RestaurantsAttire":"u'casual'","Alcohol":"u'beer_and_wine'","Ambience":"{'romantic': False, 'intimate': False, 'classy': False, 'hipster': True, 'touristy': False, 'trendy': True, 'upscale': False, 'casual': False}"},"categories":"Coffee & Tea, Food, Cafes, Bars, Wine Bars, Restaurants, Nightlife","hours":{"Monday":"8:0-18:0","Tuesday":"8:0-18:0","Wednesday":"8:0-18:0","Thursday":"8:0-18:0","Friday":"8:0-18:0","Saturday":"8:0-18:0","Sunday":"10:0-17:0"}}
{"business_id":"qhDdDeI3K4jy2KyzwFN53w","name":"Barnes & Noble Booksellers","address":"8675 River Crossing Blvd","city":"Indianapolis","state":"IN","postal_code":"46240","latitude":39.91382,"longitude":-86.105739,"stars":4.0,"review_count":38,"is_open":1,"attributes":{"BusinessAcceptsCreditCards":"True","RestaurantsPriceRange2":"2","BusinessParking":"{'garage': False, 'street': False, 'validated': False, 'lot': True, 'valet': False}","BikeParking":"False"},"categories":"Shopping, Books, Mags, Music & Video, Bookstores","hours":{"Monday":"10:0-21:0","Tuesday":"10:0-21:0","Wednesday":"10:0-21:0","Thursday":"10:0-21:0","Friday":"10:0-21:0","Saturday":"10:0-21:0","Sunday":"11:0-19:0"}}
{"business_id":"kfNv-JZpuN6TVNSO6hHdkw","name":"Hibachi Express","address":"6625 E 82nd St","city":"Indianapolis","state":"IN","postal_code":"46250","latitude":39.9043203184,"longitude":-86.0530799,"stars":4.0,"review_count":20,"is_open":1,"attributes":{"RestaurantsDelivery":"True","RestaurantsTakeOut":"True","RestaurantsPriceRange2":"2"},"categories":"Steakhouses, Asian Fusion, Restaurants","hours":{"Monday":"11:0-21:0","Tuesday":"11:0-21:0","Wednesday":"11:0-21:0","Thursday":"11:0-21:0","Friday":"11:0-21:0","Saturday":"11:0-21:0"}}
{"business_id":"9OG5YkX1g2GReZM0AskizA","name":"Romano's Macaroni Grill","address":"5505 S Virginia St","city":"Reno","state":"NV","postal_code":"89502","latitude":39.4761165,"longitude":-119.7893392,"stars":2.5,"review_count":339,"is_open":1,"attributes":{"RestaurantsGoodForGroups":"True","RestaurantsTakeOut":"True","RestaurantsAttire":"'casual'","NoiseLevel":"u'average'","OutdoorSeating":"True","BikeParking":"True","BusinessParking":"{'garage': False, 'street': False, 'validated': False, 'lot': True, 'valet': False}","RestaurantsPriceRange2":"2","Caters":"True","GoodForKids":"True","RestaurantsReservations":"True","BusinessAcceptsCreditCards":"True","Alcohol":"'full_bar'","GoodForMeal":"{'dessert': None, 'latenight': False, 'lunch': True, 'dinner': True, 'brunch': None, 'breakfast': False}","RestaurantsTableService":"True","HappyHour":"True","WiFi":"u'free'","DogsAllowed":"False","Ambience":"{u'divey': False, u'hipster': False, u'casual': True, u'touristy': False, u'trendy': False, u'intimate': False, u'romantic': None, u'classy': None, u'upscale': False}","RestaurantsDelivery":"True","HasTV":"True"},"categories":"Restaurants, Italian","hours":{"Monday":"11:0-22:0","Tuesday":"11:0-22:0","Wednesday":"10:0-22:0","Thursday":"11:0-20:0","Friday":"11:0-21:0","Saturday":"12:0-21:0","Sunday":"11:0-21:0"}}
{"business_id":"4iRzR7OaS-QaSXuvYxEGKA","name":"Super Dog","address":"1160 Gallatin Pike S","city":"Nashville","state":"TN","postal_code":"37115","latitude":36.2485696,"longitude":-86.7199857,"stars":4.0,"review_count":6,"is_open":0,"attributes":{"RestaurantsReservations":"False","RestaurantsDelivery":"False","RestaurantsAttire":"u'casual'","BusinessAcceptsCreditCards":"False","Alcohol":"u'beer_and_wine'","OutdoorSeating":"False","RestaurantsGoodForGroups":"True","NoiseLevel":"u'average'","Ambience":"{'romantic': False, 'intimate': False, 'touristy': False, 'hipster': False, 'divey': False, 'classy': False, 'trendy': False, 'upscale': False, 'casual': False}","RestaurantsPriceRange2":"1","BusinessParking":"{'garage': False, 'street': False, 'validated': False, 'lot': True, 'valet': False}","HasTV":"True","RestaurantsTakeOut":"True","WiFi":"u'no'","GoodForKids":"True","Caters":"False"},"categories":"Hot Dogs, Restaurants","hours":null}
{"business_id":"PSo_C1Sfa13JHjzVNW6ziQ","name":"Indian Walk Veterinary Center","address":"662 Durham Rd","city":"Newtown","state":"PA","postal_code":"18940","latitude":40.2734926,"longitude":-74.987496,"stars":5.0,"review_count":15,"is_open":1,"attributes":null,"categories":"Pet Services, Pet Groomers, Pets, Veterinarians","hours":{"Monday":"8:0-19:0","Tuesday":"8:0-19:0","Wednesday":"8:0-19:0","Thursday":"8:0-19:0","Friday":"8:0-17:0","Saturday":"9:0-13:0"}}
{"business_id":"noByYNtDLQAra9ccqxdfDw","name":"H&M","address":"827-833 State St","city":"Santa Barbara","state":"CA","postal_code":"93101","latitude":34.4202089255,"longitude":-119.7004597389,"stars":3.0,"review_count":24,"is_open":1,"attributes":{"BusinessAcceptsCreditCards":"True","BikeParking":"True","BusinessParking":"{'garage': True, 'street': False, 'validated': False, 'lot': False, 'valet': False}","RestaurantsPriceRange2":"1"},"categories":"Women's Clothing, Accessories, Children's Clothing, Men's Clothing, Adult, Shopping, Fashion","hours":{"Monday":"11:0-18:0","Tuesday":"11:0-18:0","Wednesday":"11:0-18:0","Thursday":"11:0-18:0","Friday":"11:0-18:0","Saturday":"11:0-18:0","Sunday":"11:0-18:0"}}
{"business_id":"tMkwHmWFUEXrC9ZduonpTg","name":"The Green Pheasant","address":"215 1st Ave S","city":"Nashville","state":"TN","postal_code":"37201","latitude":36.1598858,"longitude":-86.7731974,"stars":4.0,"review_count":161,"is_open":0,"attributes":{"RestaurantsGoodForGroups":"True","HappyHour":"True","GoodForMeal":"{'dessert': None, 'latenight': None, 'lunch': None, 'dinner': True, 'brunch': None, 'breakfast': None}","DogsAllowed":"False","RestaurantsAttire":"u'casual'","BikeParking":"False","BusinessAcceptsCreditCards":"True","BusinessAcceptsBitcoin":"False","RestaurantsTakeOut":"None","Ambience":"{'touristy': False, 'hipster': False, 'romantic': False, 'divey': False, 'intimate': False, 'trendy': False, 'upscale': False, 'classy': True, 'casual': False}","HasTV":"False","BusinessParking":"{'garage': True, 'street': False, 'validated': True, 'lot': False, 'valet': True}","GoodForKids":"False","RestaurantsReservations":"True","RestaurantsTableService":"True","RestaurantsDelivery":"None","Caters":"True","OutdoorSeating":"False","WiFi":"u'free'","Alcohol":"u'full_bar'","WheelchairAccessible":"True","NoiseLevel":"u'average'"},"categories":"Restaurants, Japanese, Seafood","hours":{"Wednesday":"16:0-22:0","Thursday":"16:0-22:0","Friday":"16:0-23:0","Saturday":"16:0-23:0"}}
{"business_id":"QdN72BWoyFypdGJhhI5r7g","name":"Bar One","address":"767 S 9th St","city":"Philadelphia","state":"PA","postal_code":"19147","latitude":39.9398245705,"longitude":-75.1574465632,"stars":4.0,"review_count":65,"is_open":0,"attributes":{"Smoking":"u'no'","NoiseLevel":"u'average'","Caters":"False","WiFi":"u'free'","RestaurantsGoodForGroups":"True","Music":"{'dj': False, 'background_music': False, 'no_music': False, 'jukebox': False, 'live': False, 'video': False, 'karaoke': False}","OutdoorSeating":"False","RestaurantsTableService":"True","RestaurantsAttire":"'casual'","Ambience":"{'touristy': False, 'hipster': True, 'romantic': None, 'divey': False, 'intimate': False, 'trendy': None, 'upscale': False, 'classy': None, 'casual': True}","RestaurantsReservations":"False","RestaurantsTakeOut":"True","GoodForDancing":"False","RestaurantsPriceRange2":"2","GoodForMeal":"{'dessert': False, 'latenight': False, 'lunch': False, 'dinner': False, 'brunch': True, 'breakfast': False}","GoodForKids":"False","HappyHour":"True","RestaurantsDelivery":"True","BusinessParking":"{'garage': None, 'street': True, 'validated': None, 'lot': False, 'valet': False}","BikeParking":"True","BusinessAcceptsCreditCards":"True","HasTV":"True","Alcohol":"u'full_bar'"},"categories":"Cocktail Bars, Bars, Italian, Nightlife, Restaurants","hours":{"Monday":"16:0-0:0","Tuesday":"16:0-0:0","Wednesday":"16:0-0:0","Thursday":"12:0-0:0","Friday":"12:0-2:0","Saturday":"11:0-2:0","Sunday":"11:0-0:0"}}
{"business_id":"sqSqqLy0sN8n2IZrAbzidQ","name":"Domino's Pizza","address":"3001 Highway 31 W","city":"White House","state":"TN","postal_code":"37188","latitude":36.4647467622,"longitude":-86.6591868908,"stars":3.5,"review_count":8,"is_open":1,"attributes":{"RestaurantsPriceRange2":"1"},"categories":"Pizza, Chicken Wings, Sandwiches, Restaurants","hours":{"Monday":"10:0-0:0","Tuesday":"10:0-0:0","Wednesday":"10:0-0:0","Thursday":"10:0-0:0","Friday":"10:0-1:0","Saturday":"10:0-1:0","Sunday":"10:0-0:0"}}
{"business_id":"fvWn8oXXwbj2l79cochZyw","name":"Altitude Trampoline Park - Boise","address":"1301 N Milwaukee St","city":"Boise","state":"ID","postal_code":"83704","latitude":43.6167635,"longitude":-116.2853821,"stars":5.0,"review_count":30,"is_open":1,"attributes":{"BusinessParking":"{'garage': False, 'street': False, 'validated': False, 'lot': False, 'valet': False}","ByAppointmentOnly":"False","WheelchairAccessible":"True","BusinessAcceptsCreditCards":"True","BikeParking":"True"},"categories":"Trampoline Parks, Active Life","hours":{"Monday":"10:0-20:0","Tuesday":"10:0-20:0","Wednesday":"10:0-20:0","Thursday":"10:0-20:0","Friday":"10:0-22:0","Saturday":"9:0-22:0","Sunday":"10:0-20:0"}}
{"business_id":"Mjboz24M9NlBeiOJKLEd_Q","name":"DeSandro on Main","address":"4105 Main St","city":"Philadelphia","state":"PA","postal_code":"19127","latitude":40.0224662,"longitude":-75.218314,"stars":3.0,"review_count":41,"is_open":0,"attributes":{"RestaurantsReservations":"False","Caters":"False","RestaurantsTakeOut":"True","RestaurantsDelivery":"True","RestaurantsPriceRange2":"1","RestaurantsGoodForGroups":"True","Ambience":"{'romantic': False, 'intimate': False, 'classy': False, 'hipster': False, 'divey': False, 'touristy': False, 'trendy': False, 'upscale': False, 'casual': False}","GoodForKids":"True","BusinessParking":"{'garage': False, 'street': False, 'validated': False, 'lot': False, 'valet': False}","Alcohol":"u'none'","BusinessAcceptsCreditCards":"True","OutdoorSeating":"True","BikeParking":"True","RestaurantsAttire":"u'casual'","GoodForMeal":"{'dessert': False, 'latenight': True, 'lunch': False, 'dinner': False, 'brunch': False, 'breakfast': False}","RestaurantsTableService":"True","HasTV":"True","WiFi":"'no'","NoiseLevel":"'average'"},"categories":"Pizza, Restaurants, Salad, Soup","hours":{"Tuesday":"17:0-21:30","Wednesday":"17:0-1:30","Thursday":"17:0-1:30","Friday":"17:0-0:30","Saturday":"17:0-0:30","Sunday":"17:0-21:30"}}
{"business_id":"8sshLb4UU7emeUDvtJWnpA","name":"DanceLine","address":"30 W Lancaster Ave","city":"Paoli","state":"PA","postal_code":"19301","latitude":40.0415845065,"longitude":-75.4849526577,"stars":4.5,"review_count":11,"is_open":1,"attributes":{"BusinessParking":"{'garage': False, 'street': False, 'validated': False, 'lot': True, 'valet': False}","BusinessAcceptsCreditCards":"True","RestaurantsPriceRange2":"2","GoodForKids":"True","BikeParking":"True","WheelchairAccessible":"True"},"categories":"Dance Wear, Sports Wear, Children's Clothing, Arts & Entertainment, Social Clubs, Performing Arts, Sporting Goods, Shoe Stores, Fashion, Shopping","hours":{"Monday":"0:0-0:0","Tuesday":"10:0-19:0","Wednesday":"10:0-19:0","Thursday":"10:0-19:0","Friday":"10:0-19:0","Saturday":"10:0-17:0","Sunday":"12:0-15:0"}}
{"business_id":"kV_Q1oqis8Qli8dUoGpTyQ","name":"Ardmore Pizza","address":"10 Rittenhouse Pl","city":"Ardmore","state":"PA","postal_code":"19003","latitude":40.0067071,"longitude":-75.289671,"stars":3.5,"review_count":109,"is_open":1,"attributes":{"RestaurantsGoodForGroups":"True","WiFi":"u'no'","Alcohol":"u'none'","GoodForKids":"True","OutdoorSeating":"False","HasTV":"True","RestaurantsPriceRange2":"1","RestaurantsAttire":"u'casual'","RestaurantsTakeOut":"True","RestaurantsReservations":"False","BusinessAcceptsCreditCards":"True","RestaurantsDelivery":"True","GoodForMeal":"{'dessert': False, 'latenight': True, 'lunch': False, 'dinner': True, 'brunch': False, 'breakfast': False}","NoiseLevel":"u'average'","BikeParking":"True","BusinessParking":"{'garage': False, 'street': True, 'validated': False, 'lot': True, 'valet': False}","Ambience":"{'romantic': False, 'intimate': False, 'classy': False, 'hipster': False, 'divey': False, 'touristy': False, 'trendy': False, 'upscale': False, 'casual': True}","Caters":"True"},"categories":"Pizza, Restaurants","hours":{"Monday":"11:0-0:0","Tuesday":"11:0-0:0","Wednesday":"11:0-0:0","Thursday":"11:0-0:0","Friday":"11:0-1:0","Saturday":"11:0-1:0","Sunday":"11:0-0:0"}}
{"business_id":"w_AMNoI1iG9eay7ncmc67w","name":"River 127","address":"100 Iberville St","city":"New Orleans","state":"LA","postal_code":"70130","latitude":29.951359,"longitude":-90.0646715,"stars":3.0,"review_count":12,"is_open":1,"attributes":{"BusinessAcceptsCreditCards":"True","WiFi":"'no'","RestaurantsPriceRange2":"2"},"categories":"Event Planning & Services, Hotels, Hotels & Travel","hours":null}
{"business_id":"aPNXGTDkf-4bjhyMBQxqpQ","name":"Craft Hall","address":"901 N Delaware Ave","city":"Philadelphia","state":"PA","postal_code":"19123","latitude":39.9625821,"longitude":-75.1356571,"stars":3.5,"review_count":65,"is_open":1,"attributes":{"OutdoorSeating":"True","RestaurantsPriceRange2":"2","BusinessAcceptsCreditCards":"True","DogsAllowed":"True","Ambience":"{'touristy': False, 'hipster': False, 'romantic': False, 'divey': False, 'intimate': False, 'trendy': False, 'upscale': False, 'classy': True, 'casual': False}","HappyHour":"True","GoodForMeal":"{'dessert': False, 'latenight': False, 'lunch': False, 'dinner': False, 'brunch': False, 'breakfast': False}","RestaurantsDelivery":"True","HasTV":"True","BusinessParking":"{'garage': False, 'street': False, 'validated': False, 'lot': True, 'valet': False}","RestaurantsTakeOut":"True","GoodForKids":"True"},"categories":"Eatertainment, Arts & Entertainment, Brewpubs, American (Traditional), Bakeries, Breweries, Food, Restaurants","hours":{"Monday":"0:0-0:0","Wednesday":"16:0-22:0","Thursday":"16:0-22:0","Friday":"16:0-19:0","Saturday":"11:0-23:0","Sunday":"11:0-20:0"}}
{"business_id":"2xVsWBNFwZOxIOdd9Mwnww","name":"Cheeseburger In Paradise","address":"116 N Pottstown Pike","city":"Exton","state":"PA","postal_code":"19341","latitude":40.029962,"longitude":-75.630607,"stars":2.5,"review_count":20,"is_open":0,"attributes":{"NoiseLevel":"u'average'","HasTV":"True","RestaurantsAttire":"u'casual'","BusinessParking":"{'garage': False, 'street': False, 'validated': False, 'lot': True, 'valet': False}","Ambience":"{'romantic': False, 'intimate': False, 'touristy': False, 'hipster': False, 'divey': False, 'classy': False, 'trendy': False, 'upscale': False, 'casual': False}","RestaurantsPriceRange2":"2","BusinessAcceptsCreditCards":"True","OutdoorSeating":"True","RestaurantsGoodForGroups":"True","WiFi":"u'free'","RestaurantsDelivery":"False","GoodForKids":"True","Alcohol":"u'full_bar'","RestaurantsTakeOut":"True","HappyHour":"True"},"categories":"Restaurants, Burgers","hours":null}
{"business_id":"mGFsPRHdE6SMV1gYQ6GzgQ","name":"T-Mobile","address":"4735 Concord Pike","city":"Wilmington","state":"DE","postal_code":"19803","latitude":39.822176,"longitude":-75.546007,"stars":2.0,"review_count":6,"is_open":1,"attributes":{"BusinessParking":"{'garage': False, 'street': False, 'validated': False, 'lot': False, 'valet': False}","BusinessAcceptsCreditCards":"True","RestaurantsPriceRange2":"3","WheelchairAccessible":"True"},"categories":"Mobile Phones, Telecommunications, Electronics, Mobile Phone Accessories, Local Services, Shopping, IT Services & Computer Repair","hours":{"Monday":"0:0-0:0","Tuesday":"10:0-20:0","Wednesday":"10:0-20:0","Thursday":"10:0-20:0","Friday":"10:0-20:0","Saturday":"10:0-20:0","Sunday":"11:0-18:0"}}
{"business_id":"LcAozWCMLGjwRbokaJAKMg","name":"Edwardsville Children's Museum","address":"722 Holyoake Rd","city":"Edwardsville","state":"IL","postal_code":"62025","latitude":38.8043945,"longitude":-89.9497332,"stars":4.5,"review_count":12,"is_open":1,"attributes":{"GoodForKids":"True","BusinessAcceptsCreditCards":"True","WheelchairAccessible":"True","BusinessParking":"{'garage': False, 'street': True, 'validated': False, 'lot': True, 'valet': False}"},"categories":"Museums, Kids Activities, Arts & Entertainment, Education, Active Life, Playgrounds, Children's Museums","hours":{"Monday":"10:0-15:0","Tuesday":"9:30-14:0","Wednesday":"10:0-18:0","Thursday":"10:0-18:0","Friday":"9:30-17:30","Saturday":"9:30-17:30"}}
{"business_id":"fSCNwMtNNQY9QT69Cj9fiA","name":"Sierra Pro Events","address":"","city":"Sparks","state":"NV","postal_code":"89431","latitude":39.5401545,"longitude":-119.7483949,"stars":5.0,"review_count":7,"is_open":1,"attributes":{"BusinessAcceptsCreditCards":"True","WiFi":"u'no'"},"categories":"Musicians, DJs, Karaoke, Event Planning & Services, Nightlife","hours":{"Monday":"9:0-17:0","Tuesday":"9:0-17:0","Wednesday":"9:0-17:0","Thursday":"9:0-17:0","Friday":"9:0-17:0","Saturday":"9:0-17:0","Sunday":"9:0-17:0"}}
{"business_id":"x1mhq4IpWctQOBM06dU8vg","name":"Diamond Hair Company","address":"5324 W 16th St","city":"Indianapolis","state":"IN","postal_code":"46224","latitude":39.7874644177,"longitude":-86.2514209,"stars":1.5,"review_count":25,"is_open":1,"attributes":{"RestaurantsPriceRange2":"2"},"categories":"Hair Salons, Hair Extensions, Beauty & Spas, Wigs, Shopping","hours":{"Monday":"9:0-18:0","Tuesday":"9:0-18:0","Wednesday":"9:0-18:0","Thursday":"9:0-18:0","Friday":"9:0-18:0","Saturday":"9:0-15:0","Sunday":"9:0-15:0"}}
{"business_id":"ljxNT9p0y7YMPx0fcNBGig","name":"Tony's Restaurant & 3rd Street Cafe","address":"312 Piasa St","city":"Alton","state":"IL","postal_code":"62002","latitude":38.896563,"longitude":-90.1862032987,"stars":3.0,"review_count":94,"is_open":1,"attributes":{"RestaurantsReservations":"True","RestaurantsPriceRange2":"2","OutdoorSeating":"True","RestaurantsDelivery":"False","BusinessAcceptsCreditCards":"True","Alcohol":"u'full_bar'","HasTV":"True","Caters":"True","GoodForKids":"True","RestaurantsGoodForGroups":"True","NoiseLevel":"u'average'","RestaurantsAttire":"u'casual'","BikeParking":"True","BusinessParking":"{'garage': False, 'street': True, 'validated': False, 'lot': True, 'valet': False}","GoodForMeal":"{'dessert': False, 'latenight': False, 'lunch': False, 'dinner': True, 'brunch': False, 'breakfast': False}","WiFi":"'free'","RestaurantsTakeOut":"True","BusinessAcceptsBitcoin":"False","HappyHour":"True","Ambience":"{'touristy': False, 'hipster': False, 'romantic': False, 'divey': False, 'intimate': False, 'trendy': False, 'upscale': False, 'classy': True, 'casual': True}","RestaurantsTableService":"True","WheelchairAccessible":"True"},"categories":"Restaurants, Specialty Food, Steakhouses, Food, Italian, Pizza, Pasta Shops","hours":{"Monday":"0:0-0:0","Tuesday":"16:0-21:30","Wednesday":"16:0-21:30","Thursday":"16:0-21:30","Friday":"16:0-22:0","Saturday":"16:0-22:0","Sunday":"16:0-21:30"}}
{"business_id":"lwItZ1Ck3KtpCgG4CPFmpQ","name":"Stomel Elliot Attorney-At-Law","address":"532 Rte 70 W, Fl 2","city":"Cherry Hill","state":"NJ","postal_code":"08002","latitude":39.915478,"longitude":-75.016973,"stars":5.0,"review_count":5,"is_open":1,"attributes":null,"categories":"DUI Law, Professional Services, Lawyers, Criminal Defense Law","hours":{"Monday":"0:0-0:0","Tuesday":"0:0-0:0","Wednesday":"0:0-0:0","Thursday":"0:0-0:0","Friday":"0:0-0:0","Saturday":"0:0-0:0","Sunday":"0:0-0:0"}}
{"business_id":"Kq51_lGAgAigqmENITTr-A","name":"Bala Better Health","address":"2 Bala Plz, Ste PL-11","city":"Bala Cynwyd","state":"PA","postal_code":"19004","latitude":40.00687,"longitude":-75.217262,"stars":4.0,"review_count":13,"is_open":1,"attributes":{"WiFi":"u'free'","BusinessAcceptsBitcoin":"False","BikeParking":"True","AcceptsInsurance":"False","ByAppointmentOnly":"False","WheelchairAccessible":"True","BusinessAcceptsCreditCards":"True"},"categories":"Health & Medical, Beauty & Spas, Laser Hair Removal, Doctors, Hair Removal, Chiropractors, Weight Loss Centers, Sports Medicine, Medical Spas, Skin Care","hours":{"Monday":"0:0-0:0","Tuesday":"9:0-15:0"}}
{"business_id":"mglME3E7esPSpIF5bias8w","name":"Pier 1","address":"1014 Baltimore Pike","city":"Springfield","state":"PA","postal_code":"19064","latitude":39.9152704301,"longitude":-75.3426812589,"stars":2.5,"review_count":8,"is_open":0,"attributes":{"RestaurantsPriceRange2":"3","BikeParking":"True","BusinessAcceptsCreditCards":"True","BusinessParking":"{'garage': False, 'street': False, 'validated': False, 'lot': True, 'valet': False}"},"categories":"Fashion, Shopping, Department Stores, Furniture Stores, Candle Stores, Home & Garden, Home Decor","hours":{"Monday":"10:0-20:0","Tuesday":"10:0-20:0","Wednesday":"10:0-20:0","Thursday":"10:0-20:0","Friday":"10:0-21:0","Saturday":"10:0-21:0","Sunday":"11:0-19:0"}}
{"business_id":"wghnIlMb_i5U46HMBGx9ig","name":"China Dragon Restaurant","address":"1625 W Valencia Rd, Ste 101-103","city":"Tucson","state":"AZ","postal_code":"85746","latitude":32.1323047,"longitude":-110.9999851,"stars":3.0,"review_count":23,"is_open":0,"attributes":{"WiFi":"'no'","BusinessParking":"{'garage': False, 'street': False, 'validated': False, 'lot': False, 'valet': False}","HasTV":"False","Alcohol":"'beer_and_wine'","RestaurantsDelivery":"False","RestaurantsPriceRange2":"2","RestaurantsAttire":"u'casual'","OutdoorSeating":"False","RestaurantsReservations":"True","RestaurantsGoodForGroups":"True","NoiseLevel":"u'quiet'","RestaurantsTakeOut":"True","Caters":"False","Ambience":"{'romantic': False, 'intimate': False, 'classy': False, 'hipster': False, 'divey': False, 'touristy': False, 'trendy': False, 'upscale': False, 'casual': True}","BusinessAcceptsCreditCards":"True","GoodForKids":"True"},"categories":"Restaurants, Chinese","hours":{"Monday":"11:0-21:0","Tuesday":"11:0-21:0","Wednesday":"11:0-21:0","Thursday":"11:0-21:0","Friday":"11:0-21:0","Saturday":"11:0-21:0","Sunday":"11:0-21:0"}}
{"business_id":"JX4tUpd09YFchLBuI43lGw","name":"Naked Cyber Cafe & Espresso Bar","address":"10303  108 Street NW","city":"Edmonton","state":"AB","postal_code":"T5J 1L7","latitude":53.5446819,"longitude":-113.506589,"stars":4.0,"review_count":12,"is_open":1,"attributes":{"OutdoorSeating":"False","BusinessParking":"{'garage': False, 'street': True, 'validated': True, 'lot': True, 'valet': False}","WiFi":"u'free'","RestaurantsPriceRange2":"2","HasTV":"False","Alcohol":"u'none'","RestaurantsTakeOut":"True","BikeParking":"True","Smoking":"u'no'","Music":"{'dj': False, 'background_music': False, 'no_music': False, 'jukebox': False, 'live': True, 'video': False, 'karaoke': False}","Caters":"False","DogsAllowed":"False","CoatCheck":"False","WheelchairAccessible":"True"},"categories":"Arts & Entertainment, Music Venues, Internet Service Providers, Nightlife, Food, Coffee & Tea, Jazz & Blues, Professional Services, Internet Cafes","hours":{"Monday":"11:0-1:0","Tuesday":"11:0-1:0","Wednesday":"11:0-1:0","Thursday":"11:0-1:0","Friday":"11:0-1:0","Saturday":"19:0-1:0","Sunday":"19:0-1:0"}}
{"business_id":"lk9IwjZXqUMqqOhM774DtQ","name":"Caviar & Bananas","address":"2031 Broadway","city":"Nashville","state":"TN","postal_code":"37203","latitude":36.1483712,"longitude":-86.7988947,"stars":3.5,"review_count":159,"is_open":0,"attributes":{"RestaurantsTakeOut":"True","RestaurantsReservations":"False","RestaurantsAttire":"'casual'","OutdoorSeating":"True","BestNights":"{'monday': False, 'tuesday': False, 'friday': False, 'wednesday': False, 'thursday': False, 'sunday': False, 'saturday': False}","RestaurantsTableService":"False","Ambience":"{'touristy': False, 'hipster': False, 'romantic': False, 'divey': False, 'intimate': False, 'trendy': True, 'upscale': False, 'classy': True, 'casual': True}","RestaurantsPriceRange2":"2","Alcohol":"u'beer_and_wine'","RestaurantsGoodForGroups":"True","BikeParking":"True","BusinessAcceptsCreditCards":"True","GoodForKids":"True","HappyHour":"True","WiFi":"'free'","CoatCheck":"False","BusinessParking":"{'garage': True, 'street': False, 'validated': False, 'lot': False, 'valet': False}","GoodForMeal":"{'dessert': True, 'latenight': False, 'lunch': True, 'dinner': False, 'brunch': True, 'breakfast': True}","WheelchairAccessible":"True","NoiseLevel":"u'average'","Caters":"True","HasTV":"False","Music":"{'dj': False, 'background_music': False, 'no_music': False, 'jukebox': False, 'live': False, 'video': False, 'karaoke': False}","Smoking":"u'no'","RestaurantsDelivery":"True","GoodForDancing":"False"},"categories":"Coffee & Tea, Restaurants, Wine Bars, Bars, Nightlife, American (Traditional), Event Planning & Services, Food, Caterers, Breakfast & Brunch, Cafes, Diners","hours":{"Monday":"7:0-17:0","Tuesday":"7:0-17:0","Wednesday":"7:0-17:0","Thursday":"7:0-17:0","Friday":"7:0-17:0","Saturday":"7:0-17:0","Sunday":"7:0-17:0"}}
{"business_id":"bCBPXIVfVzBZBEpFu29dcg","name":"All In Shipping","address":"5343 Belleville Crossing St","city":"Belleville","state":"IL","postal_code":"62226","latitude":38.5175856,"longitude":-90.0219285,"stars":5.0,"review_count":5,"is_open":1,"attributes":{"BusinessAcceptsCreditCards":"True"},"categories":"Shipping Centers, Local Services","hours":null}
{"business_id":"ABxoFuzZy5mqQ8C5FJJajQ","name":"Core de Roma","address":"201 Jefferson St","city":"Bala Cynwyd","state":"PA","postal_code":"19004","latitude":40.0283575,"longitude":-75.2380841,"stars":5.0,"review_count":12,"is_open":1,"attributes":{"RestaurantsTakeOut":"None","RestaurantsDelivery":"None","BusinessParking":"{u'valet': False, u'garage': False, u'street': False, u'lot': True, u'validated': False}"},"categories":"Restaurants, Italian","hours":{"Tuesday":"15:0-20:30","Wednesday":"15:0-20:30","Thursday":"15:0-20:30","Friday":"15:0-20:30","Saturday":"15:0-20:30","Sunday":"15:0-20:30"}}
{"business_id":"Hwt3_mOEmU-t--ywcemnMg","name":"Gold's Gym","address":"203 - 38th Ave N","city":"St. Petersburg","state":"FL","postal_code":"33704","latitude":27.8083394,"longitude":-82.6361678,"stars":3.0,"review_count":17,"is_open":0,"attributes":{"GoodForKids":"True","BusinessAcceptsCreditCards":"False"},"categories":"Active Life, Fitness & Instruction, Trainers, Gyms, Yoga","hours":{"Monday":"5:0-0:0","Tuesday":"0:0-0:0","Wednesday":"0:0-0:0","Thursday":"0:0-0:0","Friday":"0:0-21:0","Saturday":"6:0-19:0","Sunday":"8:0-19:0"}}
{"business_id":"REwfwz-_-CMQ7Np5UVi9Qg","name":"Jennie Deckert","address":"","city":"Carmel","state":"IN","postal_code":"46032","latitude":39.9693,"longitude":-86.1650024,"stars":5.0,"review_count":7,"is_open":1,"attributes":null,"categories":"Real Estate Agents, Home Services, Real Estate","hours":null}
{"business_id":"5BmQX4UVJY19mMtafMg7JA","name":"Breadland Organic Whole Grain Bakery","address":"11642 104 Avenue, Unit 642","city":"Edmonton","state":"AB","postal_code":"T5K 2T7","latitude":53.547205,"longitude":-113.522448,"stars":4.0,"review_count":23,"is_open":1,"attributes":{"RestaurantsPriceRange2":"2","BikeParking":"True","BusinessParking":"{'garage': False, 'street': False, 'validated': False, 'lot': True, 'valet': False}","RestaurantsDelivery":"False","RestaurantsTakeOut":"True"},"categories":"Specialty Food, Bakeries, Food, Health Markets","hours":{"Monday":"9:0-18:0","Tuesday":"9:0-18:0","Wednesday":"9:0-18:0","Thursday":"9:0-18:0","Friday":"9:0-18:0","Saturday":"9:0-17:0"}}
{"business_id":"cVBxfMC4lp3DnocjYA3FHQ","name":"Paws The Cat Cafe","address":"10588 109 Street","city":"Edmonton","state":"AB","postal_code":"T5H 3B2","latitude":53.5496333,"longitude":-113.5087799,"stars":5.0,"review_count":20,"is_open":0,"attributes":{"RestaurantsAttire":"'casual'","RestaurantsReservations":"True","BusinessParking":"{'garage': False, 'street': True, 'validated': False, 'lot': True, 'valet': False}","Alcohol":"u'none'","GoodForMeal":"{'dessert': False, 'latenight': False, 'lunch': False, 'dinner': False, 'brunch': False, 'breakfast': False}","WheelchairAccessible":"False","GoodForKids":"True","RestaurantsTakeOut":"True","RestaurantsTableService":"False","OutdoorSeating":"False","Ambience":"{'touristy': False, 'hipster': False, 'romantic': False, 'intimate': False, 'trendy': False, 'upscale': False, 'classy': False, 'casual': False}","HasTV":"False","RestaurantsGoodForGroups":"True","RestaurantsPriceRange2":"1","Caters":"False","WiFi":"u'free'","BikeParking":"True","DogsAllowed":"False","RestaurantsDelivery":"False","HappyHour":"False"},"categories":"Coffee & Tea, Cafes, Pets, Restaurants, Pet Adoption, Food","hours":{"Monday":"0:0-0:0","Tuesday":"10:0-21:0","Wednesday":"10:0-21:0","Thursday":"10:0-21:0","Friday":"10:0-20:0","Saturday":"10:0-18:0","Sunday":"10:0-18:0"}}
{"business_id":"0qNpTGTcqPwOLi2hADx4Xw","name":"Charlie's Market","address":"2815 E Sligh Ave","city":"Tampa","state":"FL","postal_code":"33610","latitude":28.0103596,"longitude":-82.4300416,"stars":3.0,"review_count":9,"is_open":1,"attributes":{"BusinessParking":"{'garage': False, 'street': False, 'validated': False, 'lot': False, 'valet': False}","BusinessAcceptsCreditCards":"True","RestaurantsPriceRange2":"1","BikeParking":"True","RestaurantsTakeOut":"True"},"categories":"Food, Grocery, Convenience Stores","hours":null}
{"business_id":"xM6LoUcnpDpMBzXs_7dXAg","name":"Fairfield Inn & Suites","address":"719 E Baltimore Pike","city":"Kennett Square","state":"PA","postal_code":"19348","latitude":39.8562475317,"longitude":-75.6946098804,"stars":3.0,"review_count":37,"is_open":1,"attributes":{"BusinessAcceptsCreditCards":"True","WiFi":"u'free'","RestaurantsPriceRange2":"2"},"categories":"Hotels, Hotels & Travel, Event Planning & Services","hours":null}
{"business_id":"txyXRytGjwOXvS8s4sc-WA","name":"Smoothie King","address":"1070 E Tucson Marketplace Blvd","city":"Tucson","state":"AZ","postal_code":"85713","latitude":32.186794,"longitude":-110.954765,"stars":3.0,"review_count":29,"is_open":1,"attributes":{"RestaurantsPriceRange2":"2","BusinessParking":"{u'valet': False, u'garage': False, u'street': None, u'lot': True, u'validated': False}","BikeParking":"True","WheelchairAccessible":"False","WiFi":"u'free'","BusinessAcceptsCreditCards":"True","RestaurantsTakeOut":"True","RestaurantsDelivery":"True"},"categories":"Vitamins & Supplements, Ice Cream & Frozen Yogurt, Food, Juice Bars & Smoothies, Shopping","hours":{"Monday":"0:0-0:0","Tuesday":"7:0-21:0","Wednesday":"7:0-19:0","Thursday":"7:0-19:0","Friday":"7:0-19:0","Saturday":"9:0-20:0","Sunday":"11:0-18:0"}}
{"business_id":"DQ7PyYlp2bX96WZa7TcaWQ","name":"LensCrafters","address":"1150 Plymouth Meeting Mall, Ste 2230","city":"Plymouth Meeting","state":"PA","postal_code":"19462","latitude":40.1161788,"longitude":-75.2825254,"stars":2.5,"review_count":8,"is_open":1,"attributes":{"BusinessAcceptsCreditCards":"True","ByAppointmentOnly":"True","BikeParking":"True","RestaurantsPriceRange2":"3","BusinessParking":"{'garage': False, 'street': False, 'validated': False, 'lot': False, 'valet': False}","RestaurantsDelivery":"False","RestaurantsTakeOut":"True"},"categories":"Ophthalmologists, Eyewear & Opticians, Health & Medical, Shopping, Doctors, Optometrists","hours":{"Monday":"10:0-21:0","Tuesday":"10:0-21:0","Wednesday":"10:0-21:0","Thursday":"10:0-21:0","Friday":"10:0-21:0","Saturday":"10:0-21:0","Sunday":"11:0-18:0"}}
{"business_id":"uI9XODGY_2_ieTE6xJ0myw","name":"Roman Forum","address":"10440 N Dale Mabry Hwy","city":"Tampa","state":"FL","postal_code":"33618","latitude":28.0462028173,"longitude":-82.5050526736,"stars":4.0,"review_count":23,"is_open":0,"attributes":{"BusinessParking":"{'garage': False, 'street': False, 'validated': False, 'lot': True, 'valet': False}","BikeParking":"False","OutdoorSeating":"True","RestaurantsDelivery":"False","GoodForKids":"True","RestaurantsTakeOut":"True","BusinessAcceptsCreditCards":"True","Caters":"True","NoiseLevel":"u'quiet'","WiFi":"'no'","HasTV":"True","Ambience":"{'romantic': False, 'intimate': False, 'classy': False, 'hipster': False, 'divey': False, 'touristy': False, 'trendy': False, 'upscale': False, 'casual': True}","RestaurantsAttire":"u'casual'","RestaurantsReservations":"True","Alcohol":"u'full_bar'","RestaurantsGoodForGroups":"True","RestaurantsPriceRange2":"2"},"categories":"Restaurants, American (New), Italian","hours":{"Monday":"11:30-21:0","Tuesday":"11:30-21:0","Wednesday":"11:30-21:0","Thursday":"11:30-21:0","Friday":"11:30-22:0","Saturday":"4:0-22:0"}}
{"business_id":"JgpnXv_0XhV3SfbfB50nxw","name":"Joe's Pizza","address":"2038 N Dale Mabry Hwy","city":"Tampa","state":"FL","postal_code":"33607","latitude":27.9605142,"longitude":-82.506127,"stars":4.0,"review_count":35,"is_open":0,"attributes":{"BusinessParking":"{'garage': False, 'street': False, 'validated': False, 'lot': True, 'valet': False}","GoodForKids":"True","RestaurantsReservations":"False","RestaurantsTakeOut":"True","Caters":"False","HasTV":"True","RestaurantsPriceRange2":"1","RestaurantsAttire":"u'casual'","OutdoorSeating":"False","RestaurantsDelivery":"True","WiFi":"u'no'","Ambience":"{'romantic': False, 'intimate': False, 'classy': False, 'hipster': False, 'divey': False, 'touristy': False, 'trendy': False, 'upscale': False, 'casual': True}","NoiseLevel":"u'average'","BikeParking":"True","Alcohol":"u'beer_and_wine'","BusinessAcceptsCreditCards":"True","RestaurantsGoodForGroups":"True","GoodForMeal":"{'dessert': False, 'latenight': False, 'lunch': True, 'dinner': True, 'brunch': False, 'breakfast': False}"},"categories":"Restaurants, Pizza","hours":{"Monday":"11:0-22:0","Tuesday":"11:0-22:0","Wednesday":"11:0-22:0","Thursday":"11:0-22:0","Friday":"11:0-3:0","Saturday":"11:0-3:0"}}
{"business_id":"Si6LXSR9gvAbmgO5DzV2cw","name":"Lafitte's Landing Seafood House","address":"1700 Lapalco Blvd","city":"Harvey","state":"LA","postal_code":"70058","latitude":29.8754822266,"longitude":-90.04938,"stars":2.5,"review_count":38,"is_open":0,"attributes":{"WiFi":"'no'","RestaurantsReservations":"True","RestaurantsPriceRange2":"2","RestaurantsAttire":"'casual'","HasTV":"False","Alcohol":"'full_bar'","RestaurantsDelivery":"False","GoodForKids":"True","RestaurantsTakeOut":"True","BikeParking":"True","Ambience":"{'touristy': False, 'hipster': False, 'romantic': False, 'divey': False, 'intimate': False, 'trendy': False, 'upscale': False, 'classy': False, 'casual': False}","GoodForMeal":"{'dessert': False, 'latenight': False, 'lunch': True, 'dinner': False, 'brunch': False, 'breakfast': False}","RestaurantsGoodForGroups":"True","OutdoorSeating":"False","BusinessAcceptsCreditCards":"True"},"categories":"Restaurants, Soup, Seafood, Burgers","hours":{"Monday":"11:0-22:0","Tuesday":"11:0-22:0","Wednesday":"11:0-22:0","Thursday":"11:0-22:0","Friday":"11:0-22:0","Saturday":"11:0-22:0","Sunday":"11:0-22:0"}}
{"business_id":"seKihQKpGGnCeLuELRQPSQ","name":"Twin Peaks","address":"6880 E 82nd St","city":"Indianapolis","state":"IN","postal_code":"46250","latitude":39.9062952,"longitude":-86.0474634,"stars":3.5,"review_count":257,"is_open":1,"attributes":{"CoatCheck":"False","Music":"{'dj': False}","Caters":"False","HappyHour":"True","WiFi":"'free'","BusinessAcceptsCreditCards":"True","RestaurantsGoodForGroups":"True","NoiseLevel":"'average'","Smoking":"u'no'","OutdoorSeating":"True","BusinessParking":"{'garage': False, 'street': False, 'validated': False, 'lot': True, 'valet': False}","HasTV":"True","RestaurantsPriceRange2":"2","GoodForDancing":"False","RestaurantsTableService":"True","RestaurantsTakeOut":"True","Alcohol":"'full_bar'","DogsAllowed":"False","RestaurantsAttire":"'casual'","RestaurantsReservations":"False","Ambience":"{u'divey': False, u'hipster': None, u'casual': True, u'touristy': None, u'trendy': None, u'intimate': False, u'romantic': False, u'classy': False, u'upscale': False}","RestaurantsDelivery":"False","GoodForMeal":"{'dessert': None, 'latenight': None, 'lunch': True, 'dinner': True, 'brunch': False, 'breakfast': False}","GoodForKids":"True","BikeParking":"False","BestNights":"{u'monday': False, u'tuesday': True, u'wednesday': False, u'thursday': False, u'friday': True, u'saturday': True, u'sunday': False}"},"categories":"Sports Bars, American (New), American (Traditional), Nightlife, Bars, Restaurants","hours":{"Monday":"0:0-0:0","Tuesday":"11:0-0:0","Wednesday":"11:0-0:0","Thursday":"11:0-22:0","Friday":"11:0-19:0","Saturday":"11:0-1:0","Sunday":"11:0-0:0"}}
{"business_id":"L_TT0BFmFwORAMaA83K54A","name":"Village Tap Room","address":"838 Broad Ripple Ave","city":"Indianapolis","state":"IN","postal_code":"46220","latitude":39.8699114,"longitude":-86.1435773,"stars":2.5,"review_count":23,"is_open":0,"attributes":{"Alcohol":"u'none'","BestNights":"{'monday': False, 'tuesday': False, 'friday': False, 'wednesday': True, 'thursday': True, 'sunday': False, 'saturday': True}","RestaurantsAttire":"u'casual'","RestaurantsPriceRange2":"2","WheelchairAccessible":"False","HasTV":"False","Ambience":"{'romantic': False, 'intimate': False, 'classy': False, 'hipster': False, 'divey': False, 'touristy': False, 'trendy': False, 'upscale': False, 'casual': True}","GoodForMeal":"{'dessert': False, 'latenight': False, 'lunch': False, 'dinner': False, 'brunch': False, 'breakfast': False}","RestaurantsDelivery":"False","RestaurantsGoodForGroups":"True","Music":"{'jukebox': True}","OutdoorSeating":"False","BusinessAcceptsCreditCards":"False","DogsAllowed":"False","NoiseLevel":"u'average'","Smoking":"u'no'","RestaurantsTableService":"False","WiFi":"u'no'","RestaurantsReservations":"False","BusinessAcceptsBitcoin":"False","GoodForDancing":"False","CoatCheck":"False","BikeParking":"False","GoodForKids":"False","RestaurantsTakeOut":"False","HappyHour":"False","Caters":"False"},"categories":"Gastropubs, Cocktail Bars, Beer Bar, Bars, Restaurants, Nightlife","hours":null}
{"business_id":"mjWvAkNqoA6Y5P03sDSzfA","name":"Educational Outfitters","address":"3904 W Hillsborough Ave, Ste D","city":"Tampa","state":"FL","postal_code":"33614","latitude":27.9954501644,"longitude":-82.5081187,"stars":2.0,"review_count":10,"is_open":1,"attributes":{"BusinessParking":"{'garage': False, 'street': False, 'validated': False, 'lot': False, 'valet': False}","BikeParking":"True","BusinessAcceptsCreditCards":"True"},"categories":"Uniforms, Shopping","hours":null}
{"business_id":"qfWJmJ0g96eM_fWma3ja0g","name":"Doc Magrogan's Oyster House - West Chester","address":"117 E Gay St","city":"West Chester","state":"PA","postal_code":"19380","latitude":39.9615417,"longitude":-75.6036042,"stars":3.0,"review_count":114,"is_open":0,"attributes":{"WiFi":"u'no'","RestaurantsAttire":"u'casual'","OutdoorSeating":"True","RestaurantsGoodForGroups":"True","BusinessAcceptsCreditCards":"True","Alcohol":"u'full_bar'","Caters":"False","NoiseLevel":"u'average'","BusinessParking":"{'garage': False, 'street': True, 'validated': False, 'lot': False, 'valet': False}","GoodForKids":"True","RestaurantsReservations":"True","BikeParking":"True","RestaurantsPriceRange2":"2","RestaurantsTakeOut":"True","HasTV":"True","Ambience":"{'romantic': False, 'intimate': False, 'touristy': False, 'hipster': False, 'divey': False, 'classy': False, 'trendy': False, 'upscale': False, 'casual': True}","HappyHour":"True","RestaurantsDelivery":"False"},"categories":"Seafood, Restaurants, Bars, Nightlife, Cocktail Bars, American (New), Pubs","hours":null}
{"business_id":"uczmbBk5O3tYhGue13dCDg","name":"New Orleans Spirit Tours","address":"723 St Peter St","city":"New Orleans","state":"LA","postal_code":"70130","latitude":29.958431,"longitude":-90.065173,"stars":4.0,"review_count":38,"is_open":1,"attributes":{"WiFi":"u'no'"},"categories":"Hotels & Travel, Tours, Local Flavor","hours":{"Monday":"0:0-0:0","Tuesday":"10:0-20:0","Wednesday":"10:0-20:0","Thursday":"10:0-20:0","Friday":"10:0-20:0","Saturday":"10:0-20:0","Sunday":"10:0-20:0"}}
{"business_id":"n7AQvGvNHlmun3kqXeBKVQ","name":"Roy's Appliance Service","address":"","city":"Meridian","state":"ID","postal_code":"83646","latitude":43.6434944,"longitude":-116.4360004,"stars":5.0,"review_count":5,"is_open":1,"attributes":{"BusinessAcceptsCreditCards":"True"},"categories":"Local Services, Appliances & Repair","hours":{"Monday":"0:0-0:0","Tuesday":"8:30-15:0","Wednesday":"8:30-15:0","Thursday":"8:30-15:0","Friday":"8:30-15:0"}}
{"business_id":"eYxGFkxo6m3SYGVTh5m2nQ","name":"Big Boyz Toyz Motorcycle Rentals","address":"4158 E Grant Rd","city":"Tucson","state":"AZ","postal_code":"85712","latitude":32.2503237,"longitude":-110.9036553,"stars":4.5,"review_count":8,"is_open":1,"attributes":null,"categories":"Towing, Hotels & Travel, Automotive, Motorcycle Rental, Motorcycle Gear, Shopping","hours":{"Monday":"8:30-18:0","Tuesday":"8:30-18:0","Wednesday":"8:30-18:0","Thursday":"8:30-18:0","Friday":"8:30-18:0","Saturday":"9:0-16:0"}}
{"business_id":"lOP3HxdUTaq0eXhwR_KC-w","name":"Sweet Things Chocolates","address":"2288 W 86th St","city":"Indianapolis","state":"IN","postal_code":"46260","latitude":39.913292,"longitude":-86.20083,"stars":4.0,"review_count":13,"is_open":1,"attributes":{"BusinessAcceptsCreditCards":"True","BikeParking":"True","RestaurantsPriceRange2":"2","RestaurantsTakeOut":"True","RestaurantsDelivery":"True","WheelchairAccessible":"True","BusinessParking":"{u'valet': False, u'garage': False, u'street': None, u'lot': True, u'validated': False}"},"categories":"Chocolatiers & Shops, Specialty Food, Candy Stores, Food","hours":{"Monday":"10:0-18:0","Tuesday":"10:0-18:0","Wednesday":"10:0-18:0","Thursday":"10:0-18:0","Friday":"10:0-18:0","Saturday":"11:0-17:0"}}
{"business_id":"KWA2qtdwVEkMpd5soSKaGA","name":"Publix Super Market","address":"12101 Little Rd","city":"Hudson","state":"FL","postal_code":"34667","latitude":28.3326007,"longitude":-82.6681066,"stars":3.5,"review_count":7,"is_open":0,"attributes":{"BikeParking":"True","BusinessAcceptsCreditCards":"True","RestaurantsPriceRange2":"2","BusinessParking":"{'garage': False, 'street': False, 'validated': False, 'lot': True, 'valet': False}"},"categories":"Food, Grocery","hours":null}
{"business_id":"gbN4RuUiiBxQ2GBFQ2p3Cw","name":"Mr. Margarita","address":"Truck Inn Way","city":"Fernley","state":"NV","postal_code":"89408","latitude":39.5139704538,"longitude":-119.8472038094,"stars":5.0,"review_count":7,"is_open":1,"attributes":{"RestaurantsPriceRange2":"1","BusinessAcceptsCreditCards":"False","BikeParking":"True","Alcohol":"'full_bar'","RestaurantsDelivery":"False","RestaurantsTakeOut":"True","GoodForMeal":"{'dessert': False, 'latenight': False, 'lunch': False, 'dinner': False, 'brunch': False, 'breakfast': False}"},"categories":"Food Trucks, Food","hours":null}
{"business_id":"B2qqjCl_BNNnXvWWfpFiLA","name":"Pottery Barn Kids","address":"4011 Hillsboro Pike, Ste 102","city":"Nashville","state":"TN","postal_code":"37215","latitude":36.1036135,"longitude":-86.8162678,"stars":1.5,"review_count":13,"is_open":1,"attributes":{"BusinessAcceptsCreditCards":"True","BikeParking":"True"},"categories":"Shopping, Baby Gear & Furniture, Home Decor, Furniture Stores, Home & Garden","hours":{"Monday":"0:0-0:0","Tuesday":"10:0-20:0","Wednesday":"10:0-20:0","Thursday":"10:0-20:0","Friday":"10:0-20:0","Saturday":"10:0-20:0","Sunday":"12:0-18:0"}}
{"business_id":"7PDi_iyik3jraDAzWwwR4Q","name":"Chase JP Morgan Bank Credit Card Services","address":"","city":"Wilmington","state":"DE","postal_code":"19850","latitude":39.749361,"longitude":-75.643331,"stars":1.5,"review_count":111,"is_open":1,"attributes":null,"categories":"Banks & Credit Unions, Financial Services","hours":null}
{"business_id":"8rb-3VYXE37IZix4yOdskw","name":"Sharky's Sports Bar & Grill","address":"820 N Black Horse Pike","city":"Williamstown","state":"NJ","postal_code":"08094","latitude":39.6968014,"longitude":-74.9998214,"stars":2.5,"review_count":29,"is_open":1,"attributes":{"Alcohol":"u'full_bar'","RestaurantsGoodForGroups":"True","BikeParking":"True","NoiseLevel":"u'average'","RestaurantsAttire":"u'casual'","BusinessAcceptsCreditCards":"True","GoodForKids":"False","HasTV":"True","RestaurantsTakeOut":"True","RestaurantsDelivery":"False","RestaurantsPriceRange2":"1","WiFi":"'free'","RestaurantsReservations":"False","OutdoorSeating":"False","BusinessParking":"{'garage': False, 'street': False, 'validated': False, 'lot': True, 'valet': False}","Caters":"False","Ambience":"{'romantic': False, 'intimate': False, 'classy': False, 'hipster': False, 'divey': True, 'touristy': False, 'trendy': False, 'upscale': False, 'casual': False}"},"categories":"American (Traditional), Bars, Nightlife, Sports Bars, Restaurants","hours":null}
{"business_id":"9Rww8yE6Dm4dSMEq09nwXg","name":"Holly Nails & Spa","address":"9101 Belcher Rd","city":"Pinellas Park","state":"FL","postal_code":"33782","latitude":27.8553467494,"longitude":-82.7363080904,"stars":4.5,"review_count":16,"is_open":1,"attributes":{"BusinessAcceptsCreditCards":"True","BikeParking":"True","WheelchairAccessible":"True","ByAppointmentOnly":"False","BusinessParking":"{'garage': False, 'street': False, 'validated': False, 'lot': True, 'valet': False}","WiFi":"u'free'"},"categories":"Health & Medical, Personal Care Services, Beauty & Spas, Massage, Nail Salons","hours":{"Tuesday":"9:30-19:0","Wednesday":"9:30-19:0","Thursday":"9:30-19:0","Friday":"9:30-19:0","Saturday":"9:30-19:0","Sunday":"10:0-17:0"}}
{"business_id":"aCDY7vXYMs54EbYuQScsnQ","name":"39 North Taproom & Grill","address":"110 S MacDade Blvd","city":"Glenolden","state":"PA","postal_code":"19036","latitude":39.9036968861,"longitude":-75.2949812448,"stars":4.5,"review_count":25,"is_open":1,"attributes":{"WheelchairAccessible":"True","RestaurantsTakeOut":"True","RestaurantsTableService":"True","GoodForMeal":"{'dessert': False, 'latenight': False, 'lunch': False, 'dinner': False, 'brunch': False, 'breakfast': False}","BusinessParking":"{'garage': False, 'street': True, 'validated': False, 'lot': True, 'valet': False}","HasTV":"True","BusinessAcceptsCreditCards":"True","Smoking":"u'no'","Caters":"True","CoatCheck":"False","HappyHour":"True","WiFi":"u'free'","Ambience":"{'touristy': False, 'hipster': False, 'romantic': False, 'divey': False, 'intimate': False, 'trendy': False, 'upscale': False, 'classy': False, 'casual': False}","Alcohol":"u'full_bar'","BikeParking":"True","Music":"{'dj': False, 'background_music': False, 'no_music': False, 'jukebox': False, 'live': True, 'video': False, 'karaoke': False}","OutdoorSeating":"None","RestaurantsDelivery":"True","BYOB":"False","RestaurantsReservations":"False"},"categories":"American (Traditional), Sports Bars, Restaurants, Bars, Nightlife, Steakhouses, Salad, Beer Bar","hours":{"Monday":"0:0-0:0","Tuesday":"11:0-0:0","Wednesday":"11:0-1:0","Thursday":"11:0-2:0","Friday":"11:0-2:0","Saturday":"11:0-2:0","Sunday":"11:0-23:0"}}
{"business_id":"-4dYswJy7SPcbcERvitmIg","name":"Pathmark","address":"3021 Grays Ferry Ave","city":"Philadelphia","state":"PA","postal_code":"19146","latitude":39.9404026,"longitude":-75.1932966,"stars":2.5,"review_count":34,"is_open":0,"attributes":{"RestaurantsPriceRange2":"2","BusinessParking":"{'garage': False, 'street': False, 'validated': False, 'lot': True, 'valet': False}","BusinessAcceptsCreditCards":"True","BikeParking":"True"},"categories":"Food, Grocery","hours":{"Monday":"6:0-1:0","Tuesday":"6:0-1:0","Wednesday":"6:0-1:0","Thursday":"6:0-1:0","Friday":"6:0-1:0","Saturday":"6:0-1:0","Sunday":"6:0-1:0"}}
{"business_id":"mFTaYsRDyeFaY2NDLfSaAA","name":"River City Games","address":"5203 99 Street NW","city":"Edmonton","state":"AB","postal_code":"T6E 5B7","latitude":53.4893123495,"longitude":-113.4855665582,"stars":4.5,"review_count":5,"is_open":1,"attributes":{"BusinessParking":"{'garage': False, 'street': False, 'validated': False, 'lot': False, 'valet': False}","RestaurantsPriceRange2":"2"},"categories":"Tabletop Games, Shopping, Sporting Goods","hours":{"Monday":"10:0-18:0","Tuesday":"10:0-18:0","Wednesday":"10:0-18:0","Thursday":"10:0-18:0","Friday":"10:0-18:0","Saturday":"10:0-17:0","Sunday":"12:0-17:0"}}
{"business_id":"x9K0RfZaT_zlw6DklBDzjw","name":"Gavi Italian Restaurant","address":"7401 N La Cholla Blvd, Ste 146","city":"Tucson","state":"AZ","postal_code":"85707","latitude":32.221667,"longitude":-110.925833,"stars":3.5,"review_count":9,"is_open":0,"attributes":{"RestaurantsPriceRange2":"2","RestaurantsReservations":"False","BusinessAcceptsCreditCards":"True","Alcohol":"u'full_bar'","GoodForKids":"True","RestaurantsAttire":"u'casual'","RestaurantsGoodForGroups":"True","RestaurantsDelivery":"False","BusinessParking":"{'garage': False, 'street': False, 'validated': False, 'lot': True, 'valet': False}","RestaurantsTakeOut":"True","OutdoorSeating":"True"},"categories":"Italian, Restaurants","hours":null}
{"business_id":"pJfh3Ct8iL58NZa8ta-a5w","name":"Top Shelf Sports Lounge","address":"3173 Cypress Ridge Blvd","city":"Wesley Chapel","state":"FL","postal_code":"33544","latitude":28.1962523878,"longitude":-82.3806153496,"stars":4.5,"review_count":95,"is_open":1,"attributes":{"BestNights":"{'monday': False, 'tuesday': False, 'friday': False, 'wednesday': False, 'thursday': False, 'sunday': False, 'saturday': False}","ByAppointmentOnly":"False","GoodForDancing":"False","BusinessAcceptsCreditCards":"True","HappyHour":"True","Alcohol":"u'full_bar'","RestaurantsAttire":"u'casual'","Smoking":"u'outdoor'","BikeParking":"True","CoatCheck":"False","HasTV":"True","RestaurantsPriceRange2":"2","RestaurantsGoodForGroups":"True","Ambience":"{'touristy': False, 'hipster': None, 'romantic': False, 'divey': False, 'intimate': False, 'trendy': None, 'upscale': None, 'classy': False, 'casual': True}","Music":"{'dj': False, 'background_music': False, 'no_music': False, 'jukebox': None, 'live': False, 'video': False, 'karaoke': None}","RestaurantsTableService":"True","BYOB":"False","WiFi":"u'free'","DogsAllowed":"False","Caters":"True","WheelchairAccessible":"True","NoiseLevel":"u'average'","DriveThru":"False","OutdoorSeating":"False","RestaurantsReservations":"True","BusinessAcceptsBitcoin":"False","RestaurantsTakeOut":"True","GoodForKids":"False","BusinessParking":"None","Corkage":"True","RestaurantsDelivery":"True","GoodForMeal":"{'dessert': None, 'latenight': None, 'lunch': None, 'dinner': True, 'brunch': None, 'breakfast': None}"},"categories":"Burgers, Sports Bars, Bars, Lounges, Restaurants, Salad, Wraps, Nightlife, American (New)","hours":{"Monday":"11:30-22:0","Tuesday":"11:30-23:30","Wednesday":"11:30-23:30","Thursday":"11:30-23:30","Friday":"11:30-23:30","Saturday":"10:0-23:30","Sunday":"10:0-22:0"}}
{"business_id":"cvP_vh_bOLbCY3eoY1Xw-A","name":"Fishers Freedom Festival","address":"1 Park Dr","city":"Fishers","state":"IN","postal_code":"46038","latitude":39.958734,"longitude":-86.016966,"stars":4.5,"review_count":7,"is_open":0,"attributes":{"GoodForKids":"True"},"categories":"Festivals, Arts & Entertainment","hours":null}
{"business_id":"7clCBgNbd-x2Wj96lZ6Mjw","name":"Bier Brewery and Tap Room","address":"5133 E 65th St","city":"Indianapolis","state":"IN","postal_code":"46220","latitude":39.8755319,"longitude":-86.0828565,"stars":4.5,"review_count":139,"is_open":1,"attributes":{"BusinessAcceptsCreditCards":"True","RestaurantsPriceRange2":"2","BusinessParking":"{'garage': False, 'street': False, 'validated': False, 'lot': True, 'valet': False}","NoiseLevel":"u'average'","Caters":"False","RestaurantsTakeOut":"True","BikeParking":"True","ByAppointmentOnly":"False","GoodForKids":"False","DogsAllowed":"True","Alcohol":"'beer_and_wine'","RestaurantsDelivery":"False"},"categories":"Food, Beer, Wine & Spirits, Breweries","hours":{"Tuesday":"15:0-21:0","Wednesday":"15:0-21:0","Thursday":"15:0-21:0","Friday":"13:0-21:0","Saturday":"12:0-21:0","Sunday":"12:0-19:0"}}
{"business_id":"ppFCk9aQkM338Rgwpl2F5A","name":"Wawa","address":"3604 Chestnut St","city":"Philadelphia","state":"PA","postal_code":"19104","latitude":39.954573,"longitude":-75.1948936,"stars":3.0,"review_count":56,"is_open":1,"attributes":{"Alcohol":"u'none'","RestaurantsGoodForGroups":"True","BusinessParking":"{'garage': False, 'street': True, 'validated': False, 'lot': False, 'valet': False}","OutdoorSeating":"False","RestaurantsPriceRange2":"1","BusinessAcceptsCreditCards":"True","Ambience":"{'romantic': False, 'intimate': False, 'classy': False, 'hipster': False, 'divey': False, 'touristy': False, 'trendy': False, 'upscale': False, 'casual': True}","GoodForKids":"True","RestaurantsReservations":"False","RestaurantsTakeOut":"True","NoiseLevel":"u'average'","RestaurantsAttire":"u'casual'","Caters":"False","ByAppointmentOnly":"False","HasTV":"True","BikeParking":"True","WiFi":"u'free'","RestaurantsDelivery":"True"},"categories":"Restaurants, Automotive, Delis, Gas Stations, Food, Coffee & Tea, Sandwiches, Convenience Stores","hours":{"Monday":"0:0-0:0","Tuesday":"0:0-0:0","Wednesday":"0:0-0:0","Thursday":"0:0-0:0","Friday":"0:0-0:0","Saturday":"0:0-0:0","Sunday":"0:0-0:0"}}
{"business_id":"NZ_bFJma7brQUfln5h1UAg","name":"Super Sushi Kyo Hin","address":"2501 Mt Holly Rd 245","city":"Burlington","state":"NJ","postal_code":"08016","latitude":40.0416285,"longitude":-74.8258209,"stars":3.5,"review_count":6,"is_open":0,"attributes":{"RestaurantsReservations":"True","RestaurantsAttire":"u'casual'","HasTV":"False","RestaurantsTakeOut":"True","BusinessParking":"{'garage': False, 'street': False, 'validated': False, 'lot': True, 'valet': False}","RestaurantsDelivery":"False","GoodForKids":"True","Ambience":"{'romantic': False, 'intimate': False, 'touristy': False, 'hipster': False, 'divey': False, 'classy': False, 'trendy': False, 'upscale': False, 'casual': False}","RestaurantsPriceRange2":"2","RestaurantsGoodForGroups":"True","OutdoorSeating":"False","NoiseLevel":"u'quiet'","BusinessAcceptsCreditCards":"True"},"categories":"Restaurants, Japanese, Sushi Bars, Asian Fusion","hours":null}
{"business_id":"eMjnw_7wp-CscyNh6Lu0ZA","name":"AM&PM Locksmith","address":"8540 Bustleton Ave","city":"Philadelphia","state":"PA","postal_code":"19152","latitude":40.0723302045,"longitude":-75.0484833435,"stars":4.5,"review_count":58,"is_open":1,"attributes":{"ByAppointmentOnly":"True","BusinessAcceptsCreditCards":"True"},"categories":"Keys & Locksmiths, Home Services, Local Services","hours":{"Monday":"6:0-3:0","Tuesday":"6:0-3:0","Wednesday":"6:0-3:0","Thursday":"6:0-3:0","Friday":"6:0-3:0","Saturday":"6:0-3:0","Sunday":"6:0-3:0"}}
{"business_id":"IDtLPgUrqorrpqSLdfMhZQ","name":"Helena Avenue Bakery","address":"131 Anacapa St, Ste C","city":"Santa Barbara","state":"CA","postal_code":"93101","latitude":34.4144445,"longitude":-119.6906718,"stars":4.0,"review_count":389,"is_open":1,"attributes":{"RestaurantsTakeOut":"True","NoiseLevel":"u'average'","Caters":"True","Ambience":"{'touristy': False, 'hipster': True, 'romantic': False, 'divey': False, 'intimate': False, 'trendy': True, 'upscale': False, 'classy': False, 'casual': True}","RestaurantsReservations":"False","BusinessAcceptsCreditCards":"True","RestaurantsTableService":"False","GoodForKids":"True","RestaurantsPriceRange2":"2","WheelchairAccessible":"True","OutdoorSeating":"True","RestaurantsDelivery":"None","HasTV":"False","RestaurantsAttire":"'casual'","Alcohol":"u'none'","GoodForMeal":"{'dessert': False, 'latenight': False, 'lunch': True, 'dinner': False, 'brunch': True, 'breakfast': True}","DogsAllowed":"True","RestaurantsGoodForGroups":"True","HappyHour":"False","BusinessParking":"{'garage': False, 'street': True, 'validated': False, 'lot': False, 'valet': False}","BikeParking":"True","WiFi":"u'no'"},"categories":"Food, Restaurants, Salad, Coffee & Tea, Breakfast & Brunch, Sandwiches, Bakeries","hours":{"Monday":"0:0-0:0","Tuesday":"8:0-14:0","Wednesday":"8:0-14:0","Thursday":"8:0-14:0","Friday":"8:0-14:0","Saturday":"8:0-14:0","Sunday":"8:0-14:0"}}
{"business_id":"sE6jSnvMts_MAn-b4OkMAw","name":"K-9 Groom Room","address":"820 Industrial Dr","city":"Troy","state":"IL","postal_code":"62294","latitude":38.7162443,"longitude":-89.8858296,"stars":4.0,"review_count":5,"is_open":1,"attributes":null,"categories":"Pet Groomers, Pet Sitting, Pets, Pet Services","hours":{"Monday":"8:0-16:0","Tuesday":"8:0-16:0","Wednesday":"8:0-16:0","Thursday":"8:0-16:0","Friday":"8:0-16:0","Saturday":"8:0-14:0"}}
{"business_id":"YNjyv0gfOr2g8lbmUpTnKg","name":"Copper Vine","address":"1001 Poydras St","city":"New Orleans","state":"LA","postal_code":"70112","latitude":29.9506467229,"longitude":-90.0744274301,"stars":4.5,"review_count":350,"is_open":1,"attributes":{"NoiseLevel":"u'average'","RestaurantsGoodForGroups":"True","WheelchairAccessible":"True","WiFi":"u'free'","HappyHour":"True","OutdoorSeating":"True","BusinessAcceptsCreditCards":"True","Ambience":"{'touristy': False, 'hipster': False, 'romantic': False, 'divey': False, 'intimate': False, 'trendy': False, 'upscale': False, 'classy': True, 'casual': False}","Alcohol":"u'full_bar'","BusinessParking":"{'garage': True, 'street': True, 'validated': False, 'lot': False, 'valet': False}","Smoking":"u'no'","RestaurantsPriceRange2":"2","RestaurantsTakeOut":"True","Music":"{'dj': False, 'background_music': False, 'no_music': False, 'jukebox': False, 'live': False, 'video': False, 'karaoke': False}","DogsAllowed":"False","BestNights":"{'monday': False, 'tuesday': False, 'friday': False, 'wednesday': False, 'thursday': False, 'sunday': False, 'saturday': False}","RestaurantsAttire":"u'casual'","ByAppointmentOnly":"False","CoatCheck":"False","GoodForDancing":"False","RestaurantsDelivery":"True","HasTV":"True","RestaurantsReservations":"True"},"categories":"Nightlife, Pubs, Event Planning & Services, Wine Bars, Bars, Gastropubs, Restaurants, Venues & Event Spaces","hours":{"Monday":"0:0-0:0","Tuesday":"11:0-21:0","Wednesday":"11:0-21:0","Thursday":"11:0-21:0","Friday":"11:0-23:0","Saturday":"10:30-22:0","Sunday":"10:30-21:0"}}
{"business_id":"LhpPSrulqVeTyJeK2xydvQ","name":"Fresh Fruits & Salads","address":"114 N 3rd St","city":"Camden","state":"NJ","postal_code":"08102","latitude":39.9466899,"longitude":-75.123327,"stars":4.5,"review_count":6,"is_open":1,"attributes":{"BusinessParking":"{'garage': False, 'street': True, 'validated': False, 'lot': False, 'valet': False}","GoodForMeal":"{'dessert': False, 'latenight': False, 'lunch': False, 'dinner': False, 'brunch': False, 'breakfast': False}","Ambience":"{'touristy': False, 'hipster': False, 'romantic': False, 'divey': False, 'intimate': False, 'trendy': False, 'upscale': False, 'classy': False, 'casual': False}","HasTV":"True"},"categories":"Juice Bars & Smoothies, Restaurants, Fruits & Veggies, Salad, Specialty Food, Food","hours":{"Monday":"9:0-18:0","Tuesday":"9:0-18:0","Wednesday":"9:0-18:0","Thursday":"9:0-18:0","Friday":"9:0-18:0","Saturday":"9:0-18:0"}}
{"business_id":"oaboaRBUgGjbo2kfUIKDLQ","name":"Mike's Ice Cream","address":"129 2nd Ave N","city":"Nashville","state":"TN","postal_code":"37201","latitude":36.1626492,"longitude":-86.7759733,"stars":4.5,"review_count":593,"is_open":1,"attributes":{"RestaurantsGoodForGroups":"True","GoodForKids":"True","BusinessParking":"{'garage': False, 'street': True, 'validated': False, 'lot': False, 'valet': False}","Alcohol":"u'none'","BusinessAcceptsCreditCards":"True","NoiseLevel":"u'average'","Caters":"False","Ambience":"{'romantic': False, 'intimate': False, 'touristy': False, 'hipster': False, 'divey': False, 'classy': False, 'trendy': False, 'upscale': False, 'casual': True}","HasTV":"False","RestaurantsReservations":"False","RestaurantsAttire":"'casual'","WiFi":"'free'","BikeParking":"False","DriveThru":"False","ByAppointmentOnly":"False","DogsAllowed":"False","RestaurantsTakeOut":"True","RestaurantsDelivery":"None","OutdoorSeating":"None","RestaurantsPriceRange2":"2"},"categories":"Ice Cream & Frozen Yogurt, Coffee & Tea, Restaurants, Sandwiches, Food","hours":{"Monday":"8:0-23:0","Tuesday":"8:0-23:0","Wednesday":"8:0-23:0","Thursday":"8:0-23:0","Friday":"8:0-0:0","Saturday":"8:0-0:30","Sunday":"8:0-23:0"}}
{"business_id":"-ZXYcCyDjj1QimnJyGtYtg","name":"Gilley's Antique Mall","address":"5789 E US Hwy 40","city":"Plainfield","state":"IN","postal_code":"46168","latitude":39.6949931921,"longitude":-86.4230714504,"stars":4.5,"review_count":24,"is_open":1,"attributes":{"RestaurantsPriceRange2":"2","ByAppointmentOnly":"False","BikeParking":"True","BusinessAcceptsCreditCards":"True","BusinessParking":"{'garage': False, 'street': False, 'validated': False, 'lot': True, 'valet': False}"},"categories":"Home Decor, Shopping, Antiques, Books, Mags, Music & Video, Home & Garden","hours":{"Monday":"10:0-17:0","Tuesday":"10:0-17:0","Wednesday":"10:0-17:0","Thursday":"10:0-17:0","Friday":"10:0-17:0","Saturday":"10:0-17:0","Sunday":"10:0-17:0"}}
{"business_id":"nUqrF-h9S7myCcvNDecOvw","name":"Iron Horse Auto Body","address":"825 Cacique St","city":"Santa Barbara","state":"CA","postal_code":"93103","latitude":34.4196198,"longitude":-119.6770319,"stars":4.5,"review_count":32,"is_open":1,"attributes":{"BusinessAcceptsCreditCards":"True","WiFi":"u'no'"},"categories":"Towing, Automotive, Body Shops","hours":{"Monday":"0:0-0:0","Tuesday":"8:0-17:0","Wednesday":"8:0-17:0","Thursday":"8:0-17:0","Friday":"8:0-17:0"}}
{"business_id":"vR9_bhoszcpXbB_APv6Xlw","name":"James Dant","address":"5624 E Washington St","city":"Indianapolis","state":"IN","postal_code":"46219","latitude":39.7709745063,"longitude":-86.0711718384,"stars":5.0,"review_count":31,"is_open":1,"attributes":{"BusinessAcceptsCreditCards":"True","BikeParking":"True","RestaurantsPriceRange2":"3","BusinessParking":"{'garage': False, 'street': True, 'validated': False, 'lot': True, 'valet': False}","BusinessAcceptsBitcoin":"False","DogsAllowed":"True","WheelchairAccessible":"True"},"categories":"Fashion, Shopping, Men's Clothing","hours":{"Monday":"11:0-17:0","Tuesday":"11:0-17:0","Wednesday":"11:0-17:0","Thursday":"11:0-17:0","Friday":"11:0-17:0","Saturday":"11:0-17:0"}}
{"business_id":"RK6-cJ9hj53RzOlCBmpT-g","name":"Impasto","address":"","city":"Tampa","state":"FL","postal_code":"33611","latitude":27.890814,"longitude":-82.5023464,"stars":5.0,"review_count":5,"is_open":1,"attributes":{"BusinessAcceptsCreditCards":"True","RestaurantsDelivery":"False","RestaurantsTakeOut":"True","Caters":"True"},"categories":"Restaurants, Italian, Food Trucks, Food","hours":{"Monday":"0:0-0:0","Tuesday":"0:0-0:0","Wednesday":"0:0-0:0","Thursday":"0:0-0:0","Friday":"0:0-0:0","Saturday":"0:0-0:0","Sunday":"0:0-0:0"}}
{"business_id":"ZM46RDLXaFNo_z6t-j_L4w","name":"Absolutely Perfect Inc","address":"1153 Byberry Rd","city":"Bensalem","state":"PA","postal_code":"19020","latitude":40.1131212,"longitude":-74.9145975,"stars":3.5,"review_count":5,"is_open":1,"attributes":{"BusinessAcceptsBitcoin":"False","BusinessAcceptsCreditCards":"True"},"categories":"Masonry\/Concrete, Gardeners, Lawn Services, Tree Services, Landscape Architects, Home Services, Contractors, Landscaping","hours":{"Monday":"7:0-17:0","Tuesday":"7:0-17:0","Wednesday":"7:0-17:0","Thursday":"7:0-17:0","Friday":"7:0-17:0"}}
{"business_id":"pEm4xNCk8d0TF6A1gi-WDQ","name":"TKO DJs","address":"2650 S Big Bend","city":"Maplewood","state":"MO","postal_code":"63143","latitude":38.6135761,"longitude":-90.3223828,"stars":3.5,"review_count":17,"is_open":1,"attributes":{"BusinessAcceptsCreditCards":"True","BusinessAcceptsBitcoin":"False"},"categories":"Karaoke, DJs, Event Planning & Services, Party & Event Planning, Nightlife","hours":{"Monday":"9:0-17:0","Tuesday":"9:0-17:0","Wednesday":"9:0-17:0","Thursday":"9:0-17:0","Friday":"9:0-17:0"}}
{"business_id":"J_ksUDPpzPwfTGtI4zTRnQ","name":"Riverview Room","address":"600 Decatur St","city":"New Orleans","state":"LA","postal_code":"70130","latitude":29.9559253,"longitude":-90.0629624,"stars":4.5,"review_count":7,"is_open":1,"attributes":{"BusinessAcceptsCreditCards":"True","WiFi":"u'free'"},"categories":"Event Planning & Services, Caterers, Party & Event Planning","hours":{"Monday":"9:0-16:0","Tuesday":"9:0-16:0","Wednesday":"9:0-16:0","Thursday":"9:0-16:0","Friday":"9:0-16:0"}}
{"business_id":"knQ4vIgx-r85kjlWVVjcpQ","name":"Silver and Blue Outfitters","address":"5191 Meadowood Mall Cir","city":"Reno","state":"NV","postal_code":"89502","latitude":39.476518,"longitude":-119.7840369,"stars":4.5,"review_count":5,"is_open":1,"attributes":{"BikeParking":"True","WiFi":"u'no'","DogsAllowed":"False","BusinessAcceptsCreditCards":"True","Alcohol":"u'none'","WheelchairAccessible":"True","BusinessParking":"{'garage': False, 'street': False, 'validated': False, 'lot': True, 'valet': False}","RestaurantsReservations":"False","BusinessAcceptsBitcoin":"False"},"categories":"Sporting Goods, Sports Wear, Fashion, Restaurants, Fast Food, Sandwiches, Shopping","hours":{"Monday":"0:0-0:0","Tuesday":"10:0-21:0","Wednesday":"10:0-21:0","Thursday":"10:0-21:0","Friday":"10:0-21:0","Saturday":"10:0-21:0","Sunday":"11:0-18:0"}}
{"business_id":"U2Tzy6J9aAAg9pzXsgdkvg","name":"Premier Mortgage Resources","address":"3363 E Presidential Dr, Ste 200","city":"Meridian","state":"ID","postal_code":"83642","latitude":43.6141936,"longitude":-116.3525001,"stars":5.0,"review_count":6,"is_open":1,"attributes":null,"categories":"Real Estate, Home Services, Financial Services, Mortgage Brokers, Mortgage Lenders","hours":{"Monday":"0:0-0:0","Tuesday":"0:0-0:0","Wednesday":"0:0-0:0","Thursday":"0:0-0:0","Friday":"0:0-0:0","Saturday":"0:0-0:0","Sunday":"0:0-0:0"}}
{"business_id":"1MeIwdbTnZOBFCKOrgaxuw","name":"Ricardo's Italian Cafe","address":"1931 Park Ave","city":"Saint Louis","state":"MO","postal_code":"63104","latitude":38.6172724,"longitude":-90.2127841,"stars":3.5,"review_count":80,"is_open":0,"attributes":{"OutdoorSeating":"False","BusinessAcceptsCreditCards":"True","RestaurantsReservations":"True","RestaurantsAttire":"u'casual'","RestaurantsTakeOut":"True","Alcohol":"u'full_bar'","RestaurantsPriceRange2":"2","GoodForKids":"True","Caters":"False","RestaurantsDelivery":"False","RestaurantsGoodForGroups":"True","Ambience":"{'romantic': False, 'intimate': False, 'touristy': False, 'hipster': False, 'divey': False, 'classy': False, 'trendy': False, 'upscale': False, 'casual': True}","WiFi":"'no'","BikeParking":"True","BusinessParking":"{'garage': False, 'street': True, 'validated': False, 'lot': False, 'valet': False}","NoiseLevel":"u'average'","HasTV":"True","HappyHour":"True"},"categories":"American (New), Restaurants, Cafes, Italian, American (Traditional)","hours":{"Monday":"11:0-14:0","Tuesday":"16:0-21:0","Wednesday":"16:0-21:0","Thursday":"16:0-21:0","Friday":"16:0-22:0","Saturday":"17:30-22:0"}}
{"business_id":"8KMIT0NXu30Jz5Ojo5uxaw","name":"Cornerstone Physical Therapy Associates","address":"1338 Bristol Pike, Ste 203","city":"Bensalem","state":"PA","postal_code":"19020","latitude":40.0722036,"longitude":-74.9644197,"stars":5.0,"review_count":6,"is_open":1,"attributes":{"BusinessAcceptsCreditCards":"True","ByAppointmentOnly":"True"},"categories":"Fitness & Instruction, Physical Therapy, Health & Medical, Active Life, Trainers","hours":{"Monday":"9:0-19:0","Tuesday":"9:0-15:30","Wednesday":"9:0-19:0","Thursday":"9:0-15:30","Friday":"9:0-15:0"}}
{"business_id":"jiLGdnf42eYftkqfU2ze1w","name":"Saks Fifth Avenue","address":"8701 Keystone Crossing","city":"Indianapolis","state":"IN","postal_code":"46240","latitude":39.913836,"longitude":-86.1079073,"stars":3.5,"review_count":29,"is_open":1,"attributes":{"RestaurantsPriceRange2":"4","BusinessAcceptsCreditCards":"True","BusinessParking":"{'garage': False, 'street': False, 'validated': False, 'lot': True, 'valet': False}","BikeParking":"False"},"categories":"Women's Clothing, Men's Clothing, Accessories, Fashion, Jewelry, Department Stores, Shopping, Shoe Stores","hours":{"Monday":"10:0-18:0","Tuesday":"10:0-18:0","Wednesday":"8:0-21:0","Thursday":"10:0-21:0","Friday":"8:0-21:0","Saturday":"10:0-21:0","Sunday":"10:0-19:0"}}
{"business_id":"EuRGgOwJ0g1vTj2R04j37Q","name":"Crafty Crab","address":"51 Ludwig Dr","city":"Fairview Heights","state":"IL","postal_code":"62208","latitude":38.6012982,"longitude":-89.9896835,"stars":2.5,"review_count":14,"is_open":1,"attributes":{"BusinessParking":"{u'valet': False, u'garage': False, u'street': False, u'lot': True, u'validated': False}","RestaurantsDelivery":"True","RestaurantsTakeOut":"True","HasTV":"True","GoodForKids":"True"},"categories":"Seafood, Restaurants","hours":{"Monday":"12:0-22:0","Tuesday":"12:0-22:0","Wednesday":"12:0-22:0","Thursday":"12:0-22:0","Friday":"12:0-23:0","Saturday":"12:0-23:0","Sunday":"12:0-22:0"}}
{"business_id":"TLZ3-eDPLhUzfsWO4ad6Ug","name":"Mahony's Po-Boys & Seafood","address":"901 Iberville St","city":"New Orleans","state":"LA","postal_code":"70112","latitude":29.9554151,"longitude":-90.0700619,"stars":4.0,"review_count":382,"is_open":1,"attributes":{"RestaurantsGoodForGroups":"True","DogsAllowed":"False","Alcohol":"'full_bar'","RestaurantsAttire":"u'casual'","RestaurantsDelivery":"False","RestaurantsReservations":"False","BusinessAcceptsCreditCards":"True","HasTV":"True","RestaurantsTableService":"True","RestaurantsPriceRange2":"2","WiFi":"u'free'","NoiseLevel":"u'average'","Ambience":"{'touristy': False, 'hipster': False, 'romantic': False, 'divey': False, 'intimate': False, 'trendy': False, 'upscale': False, 'classy': True, 'casual': True}","WheelchairAccessible":"True","BYOB":"False","OutdoorSeating":"False","HappyHour":"True","RestaurantsTakeOut":"True","BusinessParking":"{'garage': None, 'street': False, 'validated': None, 'lot': False, 'valet': False}","Caters":"False","GoodForMeal":"{'dessert': None, 'latenight': None, 'lunch': True, 'dinner': True, 'brunch': True, 'breakfast': None}","GoodForKids":"True","BikeParking":"True"},"categories":"Restaurants, Seafood, Cajun\/Creole","hours":{"Monday":"0:0-0:0","Thursday":"15:0-20:0","Friday":"12:0-20:0","Saturday":"12:0-20:0","Sunday":"12:0-20:0"}}
{"business_id":"Dy91wdWkwtI_qgjAIZ0Niw","name":"Taqueria Los Primos","address":"3322 Old Capitol Trl","city":"Wilmington","state":"DE","postal_code":"19808","latitude":39.7320886,"longitude":-75.6256733,"stars":4.0,"review_count":23,"is_open":1,"attributes":{"BusinessAcceptsCreditCards":"True","HasTV":"True","OutdoorSeating":"False","RestaurantsReservations":"False","GoodForKids":"True","RestaurantsPriceRange2":"1","RestaurantsTakeOut":"True","Caters":"False","WiFi":"u'no'","RestaurantsAttire":"u'casual'","NoiseLevel":"u'quiet'","BusinessParking":"{'garage': False, 'street': False, 'validated': False, 'lot': True, 'valet': False}","BikeParking":"False","Alcohol":"u'none'","RestaurantsGoodForGroups":"True","GoodForMeal":"{u'breakfast': False, u'brunch': False, u'lunch': True, u'dinner': None, u'latenight': None, u'dessert': False}","RestaurantsDelivery":"True","Ambience":"{u'divey': True, u'hipster': False, u'casual': None, u'touristy': False, u'trendy': False, u'intimate': False, u'romantic': False, u'classy': False, u'upscale': False}"},"categories":"Mexican, Restaurants","hours":null}
{"business_id":"2Bi3ef7c0CrLxHD_-yy_tw","name":"AIM Mail Center","address":"12112 N Rancho Vistoso Blvd, Ste 150","city":"Oro Valley","state":"AZ","postal_code":"85755","latitude":32.4263727,"longitude":-110.9592405,"stars":3.0,"review_count":13,"is_open":1,"attributes":{"BusinessAcceptsCreditCards":"True"},"categories":"Printing Services, Local Services, Shipping Centers, Couriers & Delivery Services, Notaries","hours":{"Monday":"8:30-18:0","Tuesday":"8:30-18:0","Wednesday":"8:30-18:0","Thursday":"8:30-18:0","Friday":"8:30-18:0","Saturday":"9:0-16:0"}}
{"business_id":"vje0KIiE7vtpx7JzmBx5LQ","name":"The Pearl","address":"163 107th Ave","city":"Treasure Island","state":"FL","postal_code":"33706","latitude":27.7694046,"longitude":-82.767317,"stars":4.0,"review_count":129,"is_open":1,"attributes":{"WiFi":"'free'","NoiseLevel":"u'average'","GoodForKids":"False","Caters":"True","RestaurantsGoodForGroups":"True","BusinessAcceptsCreditCards":"True","RestaurantsTakeOut":"True","Alcohol":"u'full_bar'","OutdoorSeating":"True","RestaurantsPriceRange2":"3","RestaurantsReservations":"True","RestaurantsAttire":"u'casual'","HasTV":"False","RestaurantsTableService":"True","BusinessParking":"{'garage': False, 'street': False, 'validated': False, 'lot': None, 'valet': False}","HappyHour":"False","BikeParking":"True","GoodForMeal":"{u'breakfast': False, u'brunch': False, u'lunch': False, u'dinner': True, u'latenight': False, u'dessert': None}","Ambience":"{'touristy': False, 'hipster': False, 'romantic': False, 'divey': False, 'intimate': False, 'trendy': False, 'upscale': False, 'classy': True, 'casual': False}","WheelchairAccessible":"True","RestaurantsDelivery":"True"},"categories":"Restaurants, French, Moroccan, Seafood, Mediterranean","hours":{"Tuesday":"16:0-21:0","Wednesday":"16:0-21:0","Thursday":"16:0-21:0","Friday":"16:0-22:0","Saturday":"16:0-22:0"}}
{"business_id":"2n9HHBxG7yAyAUwXXa49aw","name":"Mighty Dustless","address":"1256 Valley Hill Trl","city":"Southampton","state":"PA","postal_code":"18966","latitude":40.1690207,"longitude":-75.0093159,"stars":4.0,"review_count":5,"is_open":1,"attributes":{"BusinessAcceptsBitcoin":"False","BusinessAcceptsCreditCards":"True"},"categories":"Flooring, Handyman, Contractors, Home Services","hours":{"Monday":"0:0-0:0","Tuesday":"8:0-18:0","Wednesday":"8:0-18:0","Thursday":"8:0-18:0","Friday":"8:0-18:0","Saturday":"8:0-18:0"}}
{"business_id":"kK2i5Xyd9SOpF5pCFilbcg","name":"Swat Pest Control","address":"36 1\/2 W Butler Ave","city":"Chalfont","state":"PA","postal_code":"18914","latitude":40.2844964,"longitude":-75.207999,"stars":4.5,"review_count":7,"is_open":1,"attributes":{"BusinessAcceptsCreditCards":"True"},"categories":"Pest Control, Local Services","hours":{"Monday":"8:0-17:0","Tuesday":"8:0-17:0","Wednesday":"8:0-17:0","Thursday":"8:0-17:0","Friday":"8:0-17:0"}}
{"business_id":"I6DCYks9lqZeoZiVzW7PmA","name":"Its Sold Here","address":"94 York Rd","city":"Willow Grove","state":"PA","postal_code":"19090","latitude":40.1428489,"longitude":-75.1143791,"stars":1.5,"review_count":10,"is_open":1,"attributes":{"BusinessAcceptsCreditCards":"False","RestaurantsPriceRange2":"1","BusinessParking":"{'garage': False, 'street': False, 'validated': False, 'lot': False, 'valet': False}","BikeParking":"True","WheelchairAccessible":"False"},"categories":"Shopping, Auction Houses, Active Life","hours":{"Monday":"9:0-17:0","Tuesday":"9:0-17:0","Wednesday":"9:0-17:0","Thursday":"9:0-17:0","Friday":"9:0-16:0"}}
{"business_id":"VrGxoSNZfSiT-G4OqRRGIw","name":"Sunset 44 Bistro","address":"118 W Adams Ave","city":"Saint Louis","state":"MO","postal_code":"63122","latitude":38.5832229,"longitude":-90.4071872,"stars":4.0,"review_count":73,"is_open":1,"attributes":{"RestaurantsPriceRange2":"2","BusinessParking":"{'garage': False, 'street': True, 'validated': False, 'lot': True, 'valet': False}","RestaurantsGoodForGroups":"True","HasTV":"True","Caters":"True","Ambience":"{'romantic': False, 'intimate': False, 'classy': True, 'hipster': False, 'divey': False, 'touristy': False, 'trendy': False, 'upscale': False, 'casual': False}","OutdoorSeating":"True","BusinessAcceptsCreditCards":"True","RestaurantsAttire":"u'casual'","RestaurantsReservations":"True","RestaurantsTakeOut":"True","Alcohol":"'full_bar'","WheelchairAccessible":"True","NoiseLevel":"u'quiet'","WiFi":"u'free'","RestaurantsTableService":"True","BusinessAcceptsBitcoin":"False","Smoking":"u'outdoor'","HappyHour":"True","Music":"{'dj': False, 'background_music': False, 'no_music': False, 'jukebox': False, 'live': False, 'video': False, 'karaoke': False}","BikeParking":"True","GoodForKids":"True","RestaurantsDelivery":"True","BestNights":"{'monday': False, 'tuesday': False, 'friday': True, 'wednesday': False, 'thursday': True, 'sunday': False, 'saturday': True}","GoodForMeal":"{'dessert': None, 'latenight': False, 'lunch': None, 'dinner': True, 'brunch': False, 'breakfast': False}"},"categories":"Bars, Lounges, American (New), Restaurants, Nightlife, Wine Bars","hours":{"Monday":"16:0-21:0","Tuesday":"16:0-21:0","Wednesday":"16:0-21:0","Thursday":"16:0-21:0","Friday":"16:0-22:0","Saturday":"16:0-22:0","Sunday":"16:0-20:0"}}
{"business_id":"H0NEOp4e3Zu598u6kO3y0g","name":"America's Best Contacts & Eyeglasses","address":"79 Route 73, Ste 6, Coopers Plaza","city":"Voorhees","state":"NJ","postal_code":"08043","latitude":39.824552,"longitude":-74.929032,"stars":3.5,"review_count":17,"is_open":1,"attributes":{"BusinessAcceptsCreditCards":"True","ByAppointmentOnly":"False","BusinessParking":"{'garage': False, 'street': False, 'validated': False, 'lot': True, 'valet': False}","RestaurantsPriceRange2":"2","BikeParking":"False"},"categories":"Eyewear & Opticians, Health & Medical, Shopping, Doctors, Optometrists, Ophthalmologists","hours":{"Monday":"0:0-0:0","Tuesday":"9:0-18:0","Wednesday":"9:0-15:0","Thursday":"9:0-19:0","Friday":"9:0-19:0","Saturday":"9:0-18:0"}}
{"business_id":"sB45WFgysT617bKWP_WJwA","name":"Budweiser Brewery Experience","address":"1200 Lynch St","city":"Saint Louis","state":"MO","postal_code":"63118","latitude":38.6001971,"longitude":-90.2135377,"stars":4.5,"review_count":605,"is_open":1,"attributes":{"BikeParking":"True","BusinessAcceptsCreditCards":"True","RestaurantsTakeOut":"False","RestaurantsPriceRange2":"1","BusinessParking":"{'garage': False, 'street': True, 'validated': False, 'lot': True, 'valet': False}","ByAppointmentOnly":"True"},"categories":"Bars, Beer Gardens, Food, Breweries, Nightlife, Tours, Pubs, Wine Tours, Beer Tours, Hotels & Travel","hours":{"Monday":"0:0-0:0","Tuesday":"9:0-17:0","Wednesday":"9:0-17:0","Thursday":"9:0-17:0","Friday":"9:0-17:0","Saturday":"9:0-17:0","Sunday":"9:0-17:0"}}
{"business_id":"Fk1xpM7fjqEJ4paqk5ZFSg","name":"Jamba Juice","address":"13601 W Mcmillan Rd, Ste 103","city":"Boise","state":"ID","postal_code":"83713","latitude":43.6478323,"longitude":-116.3520706,"stars":3.0,"review_count":19,"is_open":0,"attributes":{"BusinessParking":"None","RestaurantsPriceRange2":"1","BikeParking":"True","BusinessAcceptsCreditCards":"True","Caters":"True","WiFi":"u'free'","RestaurantsTakeOut":"True","WheelchairAccessible":"True","BusinessAcceptsBitcoin":"False"},"categories":"Juice Bars & Smoothies, Food","hours":{"Monday":"0:0-0:0","Tuesday":"7:0-22:0","Wednesday":"7:0-21:0","Thursday":"7:0-22:0","Friday":"7:0-22:0","Saturday":"7:0-22:0","Sunday":"7:0-20:0"}}
{"business_id":"4dVrWc4Nhuw9apfk9BWEcA","name":"Walmart Supercenter","address":"41232 US Hwy 19 N","city":"Tarpon Springs","state":"FL","postal_code":"34689","latitude":28.1477204,"longitude":-82.7425681,"stars":2.0,"review_count":29,"is_open":1,"attributes":{"RestaurantsTakeOut":"False","BikeParking":"True","BusinessAcceptsCreditCards":"True","BusinessParking":"{'garage': False, 'street': False, 'validated': False, 'lot': True, 'valet': False}","Caters":"False","RestaurantsDelivery":"True","RestaurantsPriceRange2":"2"},"categories":"Grocery, Food, Shopping, Fashion, Drugstores, Department Stores, Discount Store, Electronics","hours":{"Monday":"0:0-0:0","Tuesday":"0:0-0:0","Wednesday":"0:0-0:0","Thursday":"0:0-0:0","Friday":"0:0-0:0","Saturday":"0:0-0:0","Sunday":"0:0-0:0"}}
{"business_id":"xfmkEGiIERBaBMLhw-dTCg","name":"Walmart Vision & Glasses","address":"1675 S Christopher Columbus Blvd","city":"Philadelphia","state":"PA","postal_code":"19148","latitude":39.9198090864,"longitude":-75.157802746,"stars":4.5,"review_count":6,"is_open":1,"attributes":{"RestaurantsPriceRange2":"2","BusinessAcceptsCreditCards":"True","BusinessParking":"None"},"categories":"Eyewear & Opticians, Shopping","hours":{"Monday":"9:0-20:0","Tuesday":"9:0-20:0","Wednesday":"9:0-20:0","Thursday":"9:0-20:0","Friday":"9:0-20:0","Saturday":"9:0-18:0"}}
{"business_id":"NTf_U8kYu9PAE2cZGJqtJg","name":"Mirror Lake Community Library","address":"280 5th St N","city":"St. Petersburg","state":"FL","postal_code":"33701","latitude":27.7747314,"longitude":-82.6402836,"stars":3.5,"review_count":6,"is_open":1,"attributes":{"WiFi":"u'free'"},"categories":"Public Services & Government, Libraries","hours":{"Monday":"10:0-20:0","Tuesday":"10:0-18:0","Wednesday":"10:0-20:0","Thursday":"10:0-18:0","Friday":"10:0-18:0","Saturday":"10:0-18:0"}}
{"business_id":"kk_oEw1j3xQ-cJaAII8A0Q","name":"Giant Food Store","address":"1760 Dekalb Pike","city":"Blue Bell","state":"PA","postal_code":"19422","latitude":40.1490655,"longitude":-75.3060284,"stars":3.0,"review_count":29,"is_open":1,"attributes":{"RestaurantsPriceRange2":"2","BusinessAcceptsCreditCards":"True","BikeParking":"False","RestaurantsTakeOut":"True","Caters":"True","BusinessParking":"{'garage': False, 'street': False, 'validated': False, 'lot': True, 'valet': False}"},"categories":"Grocery, Food","hours":{"Monday":"6:0-0:0","Tuesday":"6:0-0:0","Wednesday":"6:0-0:0","Thursday":"6:0-0:0","Friday":"6:0-0:0","Saturday":"6:0-0:0","Sunday":"6:0-0:0"}}
{"business_id":"RXpADfOCZBGi82-CGxYdsw","name":"Monogram Express","address":"2109 Veterans Memorial Blvd","city":"Metairie","state":"LA","postal_code":"70002","latitude":30.0032388544,"longitude":-90.146487573,"stars":4.5,"review_count":8,"is_open":1,"attributes":{"BusinessAcceptsCreditCards":"True","BikeParking":"False","BusinessAcceptsBitcoin":"False","BusinessParking":"{'garage': False, 'street': False, 'validated': False, 'lot': True, 'valet': False}"},"categories":"Flowers & Gifts, Embroidery & Crochet, Uniforms, Arts & Crafts, Home & Garden, Shopping, Gift Shops, Home Decor","hours":{"Monday":"10:0-18:0","Tuesday":"10:0-18:0","Wednesday":"10:0-18:0","Thursday":"10:0-18:0","Friday":"10:0-18:0","Saturday":"10:0-15:0"}}
{"business_id":"qFX8IdomeBVhDPCSyz2aRg","name":"Nashville Delivers","address":"6591 Bluff Rd","city":"Brentwood","state":"TN","postal_code":"37027","latitude":36.002397,"longitude":-86.7023814,"stars":3.5,"review_count":7,"is_open":1,"attributes":null,"categories":"Couriers & Delivery Services, Local Services, Food, Food Delivery Services","hours":null}
{"business_id":"bYjnX_J1bHZob10DoSFkqQ","name":"Tinkle Belle Diaper Service","address":"","city":"Santa Barbara","state":"CA","postal_code":"93101","latitude":34.420334,"longitude":-119.7107494,"stars":5.0,"review_count":17,"is_open":1,"attributes":{"BusinessAcceptsCreditCards":"True","ByAppointmentOnly":"True","WheelchairAccessible":"True","BikeParking":"True","WiFi":"u'no'","RestaurantsPriceRange2":"2","DogsAllowed":"True","BusinessAcceptsBitcoin":"False"},"categories":"Parenting Classes, Maternity Wear, Fashion, Education, Specialty Schools, Local Services, Home Services, Laundry Services, Child Care & Day Care, Shopping, Baby Gear & Furniture","hours":{"Monday":"0:0-0:0","Tuesday":"10:0-18:0","Wednesday":"10:0-18:0","Thursday":"10:0-18:0","Friday":"10:0-18:0","Saturday":"11:0-14:0"}}
{"business_id":"luGY5CJlb4CJ3LrBcSXMPA","name":"Desert Design Center","address":"4146 E Speedway Blvd","city":"Tucson","state":"AZ","postal_code":"85712","latitude":32.2358661,"longitude":-110.9036755,"stars":3.0,"review_count":5,"is_open":1,"attributes":{"BusinessParking":"{'garage': False, 'street': False, 'validated': False, 'lot': False, 'valet': False}","BusinessAcceptsCreditCards":"True","RestaurantsPriceRange2":"3"},"categories":"Furniture Stores, Shopping, Home & Garden","hours":{"Monday":"9:30-18:0","Tuesday":"9:30-18:0","Wednesday":"9:30-18:0","Thursday":"9:30-18:0","Friday":"9:30-18:0","Saturday":"9:30-18:0","Sunday":"12:0-17:0"}}
{"business_id":"VZzivJEbmHItOxNXJB3SpA","name":"Subway","address":"330 Franklin Rd, Ste 900-d","city":"Brentwood","state":"TN","postal_code":"37027","latitude":36.0263631408,"longitude":-86.7894728157,"stars":2.5,"review_count":14,"is_open":1,"attributes":{"BusinessParking":"{'garage': False, 'street': False, 'validated': False, 'lot': False, 'valet': False}","OutdoorSeating":"False","RestaurantsTakeOut":"True","RestaurantsPriceRange2":"1","DriveThru":"False","GoodForKids":"True","Ambience":"{'touristy': False, 'hipster': False, 'romantic': False, 'divey': False, 'intimate': False, 'trendy': False, 'upscale': False, 'classy': False, 'casual': False}","BusinessAcceptsCreditCards":"True","RestaurantsAttire":"u'casual'","GoodForMeal":"{'dessert': False, 'latenight': False, 'lunch': False, 'dinner': False, 'brunch': False, 'breakfast': False}","HasTV":"True","RestaurantsDelivery":"True","RestaurantsReservations":"False","RestaurantsGoodForGroups":"True","Caters":"False"},"categories":"Sandwiches, Fast Food, Restaurants","hours":{"Monday":"9:0-22:0","Tuesday":"9:0-22:0","Wednesday":"9:0-22:0","Thursday":"9:0-22:0","Friday":"9:0-20:0","Saturday":"9:0-22:0","Sunday":"10:0-22:0"}}
{"business_id":"iPSPcprSnkLOuL1Ns8UZZA","name":"Pete's Barber Shop","address":"1209 N 29th St","city":"Philadelphia","state":"PA","postal_code":"19121","latitude":39.9748805,"longitude":-75.1832618,"stars":4.5,"review_count":12,"is_open":1,"attributes":{"RestaurantsPriceRange2":"1","BusinessParking":"{'garage': False, 'street': False, 'validated': False, 'lot': False, 'valet': False}"},"categories":"Barbers, Beauty & Spas","hours":null}
{"business_id":"Q3kQYhkYxSRyYyeBgtk--A","name":"Cook's Glass & Mirror","address":"5703 W Morris St","city":"Indianapolis","state":"IN","postal_code":"46241","latitude":39.7500892,"longitude":-86.2575225,"stars":5.0,"review_count":5,"is_open":1,"attributes":{"ByAppointmentOnly":"False","BusinessAcceptsCreditCards":"True"},"categories":"Home Services, Glass & Mirrors, Door Sales\/Installation","hours":{"Monday":"8:0-17:0","Tuesday":"8:0-17:0","Wednesday":"8:0-17:0","Thursday":"8:0-17:0","Friday":"8:0-17:0"}}
{"business_id":"wEfK2HIYNzkA1QYfUjHBaw","name":"Leslie's","address":"7955 E Broadway Blvd, Ste 147","city":"Tucson","state":"AZ","postal_code":"85710","latitude":32.2215422,"longitude":-110.8221011,"stars":2.5,"review_count":15,"is_open":1,"attributes":{"BusinessAcceptsCreditCards":"True","BusinessParking":"None","RestaurantsPriceRange2":"2","BikeParking":"True"},"categories":"Hardware Stores, Home Services, Hot Tub & Pool, Pool & Hot Tub Service, Home & Garden, Shopping","hours":{"Monday":"9:0-17:0","Tuesday":"7:0-18:0","Wednesday":"7:0-18:0","Thursday":"7:0-18:0","Friday":"7:0-18:0","Saturday":"9:0-18:0","Sunday":"10:0-17:0"}}
{"business_id":"anLQj9AM8vjbcLSIE0iUgg","name":"Papa Murphy's","address":"7250 North La Cholla, Suite 186","city":"Tucson","state":"AZ","postal_code":"85741","latitude":32.3385723,"longitude":-111.0107602,"stars":4.0,"review_count":22,"is_open":1,"attributes":{"OutdoorSeating":"False","Alcohol":"u'none'","BikeParking":"False","GoodForKids":"True","RestaurantsPriceRange2":"1","RestaurantsAttire":"u'casual'","BusinessAcceptsCreditCards":"True","RestaurantsTakeOut":"True","RestaurantsReservations":"False","BusinessParking":"{'garage': False, 'street': False, 'validated': False, 'lot': False, 'valet': False}","NoiseLevel":"u'quiet'","HasTV":"True","RestaurantsDelivery":"True","RestaurantsGoodForGroups":"True","DriveThru":"True"},"categories":"Pizza, Restaurants","hours":null}
{"business_id":"BVo_36t3z7vfXp3XGgJkOg","name":"Sears Auto Center","address":"4400 Veterans Memorial Blvd","city":"Metairie","state":"LA","postal_code":"70006","latitude":30.0042804,"longitude":-90.1813221,"stars":1.5,"review_count":37,"is_open":0,"attributes":{"BusinessAcceptsCreditCards":"True"},"categories":"Tires, Auto Repair, Oil Change Stations, Automotive","hours":{"Monday":"8:0-19:0","Tuesday":"8:0-19:0","Wednesday":"8:0-19:0","Thursday":"8:0-19:0","Friday":"8:0-19:0","Saturday":"8:0-18:0","Sunday":"10:0-17:0"}}
{"business_id":"P8brGDYVWjeW9GrKixH0yQ","name":"Laser Spine Institute","address":"5332 Avion Park Dr","city":"Tampa","state":"FL","postal_code":"33607","latitude":27.9586132,"longitude":-82.5325949,"stars":3.0,"review_count":36,"is_open":0,"attributes":{"BusinessAcceptsCreditCards":"True","ByAppointmentOnly":"True"},"categories":"Medical Centers, Doctors, Diagnostic Services, Health & Medical, Orthopedists, Spine Surgeons, Diagnostic Imaging","hours":{"Monday":"8:0-20:0","Tuesday":"8:0-20:0","Wednesday":"8:0-20:0","Thursday":"8:0-20:0","Friday":"8:0-20:0","Saturday":"10:0-18:0","Sunday":"10:0-18:0"}}
{"business_id":"Cdytv_YhJO0W0Ab8t2xLtg","name":"Nipper's Pub","address":"1205 Delsea Dr","city":"Woodbury","state":"NJ","postal_code":"08096","latitude":39.8444681,"longitude":-75.1248703,"stars":3.5,"review_count":29,"is_open":1,"attributes":{"RestaurantsAttire":"u'casual'","NoiseLevel":"u'average'","Alcohol":"u'full_bar'","RestaurantsPriceRange2":"1","RestaurantsGoodForGroups":"True","OutdoorSeating":"True","WiFi":"u'no'","RestaurantsReservations":"False","RestaurantsTakeOut":"True","RestaurantsDelivery":"False","HasTV":"True","BusinessAcceptsCreditCards":"True","Music":"{'dj': False, 'background_music': False, 'no_music': False, 'jukebox': False, 'live': True, 'video': False, 'karaoke': False}","BikeParking":"False","Ambience":"{'touristy': None, 'hipster': None, 'romantic': False, 'divey': None, 'intimate': None, 'trendy': False, 'upscale': False, 'classy': False, 'casual': None}","BusinessParking":"{'garage': None, 'street': None, 'validated': None, 'lot': True, 'valet': False}","GoodForKids":"False","GoodForMeal":"{'dessert': False, 'latenight': True, 'lunch': False, 'dinner': True, 'brunch': False, 'breakfast': False}"},"categories":"Nightlife, Chicken Wings, Pubs, Bars, American (Traditional), Restaurants","hours":null}
{"business_id":"3BJxm-HnvzdwD1zjmSbmyQ","name":"Golden Chopstick Chinese Restaurant","address":"1800 Spring Garden St","city":"Philadelphia","state":"PA","postal_code":"19130","latitude":39.963077709,"longitude":-75.1680274529,"stars":3.0,"review_count":137,"is_open":1,"attributes":{"GoodForKids":"True","RestaurantsDelivery":"True","Alcohol":"u'none'","RestaurantsTakeOut":"True","RestaurantsPriceRange2":"1","BusinessAcceptsCreditCards":"True","OutdoorSeating":"False","RestaurantsGoodForGroups":"True","BikeParking":"True","BusinessParking":"{'garage': False, 'street': True, 'validated': False, 'lot': False, 'valet': False}","HasTV":"True","RestaurantsAttire":"'casual'","NoiseLevel":"u'average'","HappyHour":"False","DogsAllowed":"False","WheelchairAccessible":"True","WiFi":"u'free'","RestaurantsReservations":"True","BusinessAcceptsBitcoin":"False","GoodForMeal":"{'dessert': False, 'latenight': False, 'lunch': True, 'dinner': None, 'brunch': False, 'breakfast': False}","Ambience":"{'touristy': False, 'hipster': False, 'romantic': False, 'divey': None, 'intimate': False, 'trendy': False, 'upscale': False, 'classy': False, 'casual': None}","RestaurantsTableService":"True","Caters":"True"},"categories":"Restaurants, Chinese","hours":{"Monday":"0:0-0:0","Tuesday":"11:0-22:30","Wednesday":"11:0-22:30","Thursday":"11:0-22:30","Friday":"11:0-22:30","Saturday":"11:0-22:30","Sunday":"12:0-22:30"}}
{"business_id":"FRYkg_JvsWU9xIXZsEZcVA","name":"Altamura","address":"2127 Prytania St","city":"New Orleans","state":"LA","postal_code":"70115","latitude":29.9333877563,"longitude":-90.079498291,"stars":3.5,"review_count":27,"is_open":0,"attributes":{"Alcohol":"'full_bar'","OutdoorSeating":"True","GoodForMeal":"{'dessert': False, 'latenight': False, 'lunch': False, 'dinner': False, 'brunch': False, 'breakfast': False}","Ambience":"{'romantic': False, 'intimate': False, 'classy': False, 'hipster': False, 'divey': False, 'touristy': False, 'trendy': False, 'upscale': False, 'casual': False}","GoodForKids":"False","HasTV":"False","BusinessAcceptsCreditCards":"True","RestaurantsPriceRange2":"3","RestaurantsDelivery":"False","RestaurantsReservations":"True","HappyHour":"True","RestaurantsTakeOut":"False","RestaurantsAttire":"u'formal'","BusinessParking":"{'garage': False, 'street': False, 'validated': False, 'lot': False, 'valet': False}","RestaurantsGoodForGroups":"True","BikeParking":"True"},"categories":"Cocktail Bars, Italian, Nightlife, Seafood, Bars, Restaurants","hours":{"Monday":"17:0-22:0","Wednesday":"17:0-22:0","Thursday":"17:0-22:0","Friday":"17:0-23:0","Saturday":"17:0-23:0","Sunday":"15:0-20:0"}}
{"business_id":"9C2rpb56aQvW0ViZHK9sPw","name":"Home Plate Sports Pub","address":"4880 E 22nd St","city":"Tucson","state":"AZ","postal_code":"85711","latitude":32.206315,"longitude":-110.887843,"stars":3.5,"review_count":56,"is_open":1,"attributes":{"RestaurantsGoodForGroups":"True","Alcohol":"u'full_bar'","RestaurantsReservations":"False","NoiseLevel":"u'average'","GoodForKids":"True","BusinessAcceptsCreditCards":"True","RestaurantsDelivery":"False","WiFi":"u'no'","RestaurantsPriceRange2":"1","Caters":"False","BikeParking":"True","HappyHour":"True","RestaurantsAttire":"u'casual'","HasTV":"True","OutdoorSeating":"True","Ambience":"{u'divey': None, u'hipster': None, u'casual': True, u'touristy': None, u'trendy': None, u'intimate': False, u'romantic': None, u'classy': False, u'upscale': None}","BusinessParking":"{u'valet': False, u'garage': False, u'street': None, u'lot': None, u'validated': None}","BestNights":"{u'monday': True, u'tuesday': False, u'wednesday': False, u'thursday': False, u'friday': False, u'saturday': False, u'sunday': False}","Music":"{u'dj': None, u'live': False, u'jukebox': None, u'video': False, u'background_music': False, u'karaoke': None, u'no_music': False}"},"categories":"Bars, Restaurants, Sports Bars, Nightlife","hours":{"Monday":"10:0-2:0","Tuesday":"10:0-2:0","Wednesday":"10:0-2:0","Thursday":"10:0-2:0","Friday":"10:0-2:0","Saturday":"10:0-2:0","Sunday":"10:0-2:0"}}
{"business_id":"k0yyD71s2F2eEKWRdkZ6jA","name":"Cold Stone Creamery","address":"55 S Raceway Rd, Ste 400","city":"Indianapolis","state":"IN","postal_code":"46231","latitude":39.7628744,"longitude":-86.3257127,"stars":3.0,"review_count":19,"is_open":1,"attributes":{"BusinessParking":"{'garage': False, 'street': False, 'validated': False, 'lot': True, 'valet': False}","WiFi":"u'free'","BikeParking":"False","BusinessAcceptsCreditCards":"True","RestaurantsTakeOut":"True","Caters":"False","RestaurantsDelivery":"True","RestaurantsPriceRange2":"2"},"categories":"Custom Cakes, Food, Desserts, Cupcakes, Ice Cream & Frozen Yogurt","hours":{"Monday":"12:0-21:0","Tuesday":"12:0-21:0","Wednesday":"12:0-21:0","Thursday":"12:0-21:0","Friday":"12:0-21:0","Saturday":"12:0-21:0","Sunday":"12:0-21:0"}}
{"business_id":"dM5OKNzk9AL2aiq-fV-SYg","name":"Walmart Supercenter","address":"400 W Northfield Dr","city":"Brownsburg","state":"IN","postal_code":"46112","latitude":39.8591499,"longitude":-86.3964221,"stars":1.5,"review_count":14,"is_open":1,"attributes":{"BusinessParking":"{'garage': False, 'street': False, 'validated': False, 'lot': True, 'valet': False}","RestaurantsPriceRange2":"1","BusinessAcceptsCreditCards":"True","RestaurantsDelivery":"True","Caters":"True","RestaurantsTakeOut":"False","BikeParking":"False"},"categories":"Discount Store, Department Stores, Food, Drugstores, Shopping, Grocery, Fashion, Mobile Phones","hours":{"Monday":"6:0-23:0","Tuesday":"6:0-23:0","Wednesday":"6:0-23:0","Thursday":"6:0-23:0","Friday":"6:0-23:0","Saturday":"6:0-23:0","Sunday":"6:0-23:0"}}
{"business_id":"qdYfHRsZdcz4Bun4f9Ijaw","name":"Norristown Car Wash","address":"10 E Germantown Pike","city":"Norristown","state":"PA","postal_code":"19401","latitude":40.140914,"longitude":-75.3123146,"stars":2.0,"review_count":8,"is_open":1,"attributes":{"BusinessAcceptsCreditCards":"True"},"categories":"Car Wash, Auto Detailing, Automotive","hours":null}
{"business_id":"Y6t4pnKm5LF8y5ChHA27ow","name":"Meineke Car Care Center","address":"2632 Land O Lakes Blvd","city":"Land O Lakes","state":"FL","postal_code":"34639","latitude":28.1961683557,"longitude":-82.464425454,"stars":4.5,"review_count":27,"is_open":1,"attributes":{"BusinessAcceptsCreditCards":"True"},"categories":"Auto Repair, Automotive, Tires, Oil Change Stations","hours":{"Monday":"0:0-0:0","Tuesday":"7:30-18:0","Wednesday":"7:30-18:0","Thursday":"7:30-18:0","Friday":"7:30-18:0","Saturday":"7:30-16:0"}}
{"business_id":"E_kLUlU60fzoZYAOxbH_3w","name":"Pain Institute of Southern Arizona","address":"4582 N 1st Ave, Ste 170","city":"Tucson","state":"AZ","postal_code":"85718","latitude":32.2891826,"longitude":-110.9572299,"stars":2.5,"review_count":43,"is_open":1,"attributes":{"AcceptsInsurance":"True","ByAppointmentOnly":"True","BusinessAcceptsCreditCards":"True"},"categories":"Pain Management, Doctors, Health & Medical, Osteopathic Physicians","hours":{"Monday":"7:0-16:30","Tuesday":"7:0-16:30","Wednesday":"7:0-16:30","Thursday":"7:0-16:30","Friday":"7:0-16:30"}}
{"business_id":"txiXR1YfMyk-5S4ZzOVIhQ","name":"Advance Financial","address":"2845 Lebanon Pike","city":"Nashville","state":"TN","postal_code":"37214","latitude":36.1676590439,"longitude":-86.6582959,"stars":2.0,"review_count":7,"is_open":1,"attributes":null,"categories":"Title Loans, Installment Loans, Financial Services, Check Cashing\/Pay-day Loans","hours":{"Monday":"8:0-20:0","Tuesday":"8:0-20:0","Wednesday":"8:0-20:0","Thursday":"8:0-20:0","Friday":"8:0-20:0","Saturday":"10:0-16:0","Sunday":"10:0-16:0"}}
{"business_id":"0vCsslN-TYnDeOSNT4rIfg","name":"Whole Foods Market","address":"14598 Clay Terrace Blvd","city":"Carmel","state":"IN","postal_code":"46032","latitude":39.999084,"longitude":-86.131076,"stars":3.5,"review_count":44,"is_open":1,"attributes":{"BusinessParking":"{'garage': False, 'street': False, 'validated': False, 'lot': True, 'valet': False}","BikeParking":"True","BusinessAcceptsCreditCards":"True","RestaurantsPriceRange2":"3","RestaurantsTakeOut":"True","RestaurantsDelivery":"None","Caters":"True"},"categories":"Food, Organic Stores, Specialty Food, Health Markets, Grocery","hours":{"Monday":"0:0-0:0","Tuesday":"8:0-22:0","Wednesday":"8:0-22:0","Thursday":"7:0-15:0","Friday":"8:0-21:0","Saturday":"9:0-20:0","Sunday":"8:0-21:0"}}
{"business_id":"zFvqulgAYOpSG2t1v8AZ-w","name":"The Cake Drip","address":"1625 W Snow Cir","city":"Tampa","state":"FL","postal_code":"33606","latitude":27.935753,"longitude":-82.4764699,"stars":4.0,"review_count":40,"is_open":1,"attributes":{"RestaurantsDelivery":"False","RestaurantsTakeOut":"True"},"categories":"Desserts, Do-It-Yourself Food, Food, Patisserie\/Cake Shop","hours":{"Tuesday":"16:0-21:0","Wednesday":"16:0-21:0","Thursday":"16:0-21:0","Friday":"12:0-22:30","Saturday":"12:0-22:30","Sunday":"12:0-19:0"}}
{"business_id":"SZU9c8V2GuREDN5KgyHFJw","name":"Santa Barbara Shellfish Company","address":"230 Stearns Wharf","city":"Santa Barbara","state":"CA","postal_code":"93101","latitude":34.4087147,"longitude":-119.6850187,"stars":4.0,"review_count":2404,"is_open":1,"attributes":{"OutdoorSeating":"True","RestaurantsAttire":"'casual'","RestaurantsReservations":"False","BusinessAcceptsCreditCards":"True","NoiseLevel":"u'average'","RestaurantsPriceRange2":"2","RestaurantsGoodForGroups":"False","WiFi":"u'no'","Alcohol":"'beer_and_wine'","RestaurantsTakeOut":"True","BikeParking":"True","BusinessParking":"{'garage': False, 'street': False, 'validated': True, 'lot': False, 'valet': False}","HasTV":"False","ByAppointmentOnly":"False","GoodForKids":"True","Caters":"False","Ambience":"{'touristy': False, 'hipster': False, 'romantic': False, 'divey': False, 'intimate': False, 'trendy': False, 'upscale': False, 'classy': True, 'casual': True}","RestaurantsDelivery":"True","HappyHour":"False","Music":"{u'dj': False, u'live': False, u'jukebox': False, u'video': False, u'background_music': False, u'karaoke': False, u'no_music': False}","GoodForMeal":"{u'breakfast': False, u'brunch': None, u'lunch': True, u'dinner': True, u'latenight': False, u'dessert': False}","CoatCheck":"False","BestNights":"{u'monday': False, u'tuesday': False, u'wednesday': False, u'thursday': False, u'friday': False, u'saturday': True, u'sunday': False}","BusinessAcceptsBitcoin":"False"},"categories":"Live\/Raw Food, Restaurants, Seafood, Beer Bar, Beer, Wine & Spirits, Bars, Food, Nightlife","hours":{"Monday":"0:0-0:0","Tuesday":"11:0-21:0","Wednesday":"11:0-21:0","Thursday":"11:0-14:0","Friday":"11:0-21:0","Saturday":"11:0-21:0","Sunday":"11:0-21:0"}}
{"business_id":"GWGXTKR0Fhdvzf_isDqJug","name":"David Gower, Jr.  - Coldwell Banker Preferred","address":"325 Chestnut St, Ste 1300","city":"Philadelphia","state":"PA","postal_code":"19106","latitude":39.9490268625,"longitude":-75.1471895999,"stars":5.0,"review_count":17,"is_open":1,"attributes":{"BusinessAcceptsCreditCards":"True","ByAppointmentOnly":"True"},"categories":"Real Estate, Home Services, Real Estate Agents","hours":{"Monday":"9:0-19:0","Tuesday":"9:0-19:0","Wednesday":"9:0-19:0","Thursday":"9:0-19:0","Friday":"9:0-19:0","Saturday":"9:0-19:0","Sunday":"9:0-19:0"}}
{"business_id":"-aeZuatjCDMV1X4gCTz9Ug","name":"David Thomas Trailways","address":"14005 McNulty Rd","city":"Philadelphia","state":"PA","postal_code":"19154","latitude":40.1064092,"longitude":-74.9739371,"stars":4.5,"review_count":6,"is_open":1,"attributes":{"WiFi":"u'free'"},"categories":"Buses, Transportation, Bus Tours, Hotels & Travel, Travel Agents, Travel Services, Airport Shuttles, Tours, Public Transportation","hours":{"Monday":"8:30-17:0","Tuesday":"8:30-17:0","Wednesday":"8:30-17:0","Thursday":"8:30-17:0","Friday":"8:30-17:0"}}
{"business_id":"PYW8Buz8S8LpjIe6mZTAcw","name":"Payless Liquors","address":"954 N State Rd 135","city":"Greenwood","state":"IN","postal_code":"46143","latitude":39.632279734,"longitude":-86.158674289,"stars":3.5,"review_count":13,"is_open":1,"attributes":{"BikeParking":"True","BusinessAcceptsCreditCards":"True","BusinessParking":"{'garage': False, 'street': False, 'validated': False, 'lot': False, 'valet': False}","RestaurantsPriceRange2":"2","RestaurantsTakeOut":"True"},"categories":"Food, Beer, Wine & Spirits","hours":null}
{"business_id":"Lx8ZYUJ_-3Aa8N821mN1WQ","name":"ALM Kainan","address":"390 N McCarran Blvd, Ste B","city":"Sparks","state":"NV","postal_code":"89434","latitude":39.5371788,"longitude":-119.7355322,"stars":4.0,"review_count":13,"is_open":0,"attributes":{"RestaurantsAttire":"u'casual'","HasTV":"False","BusinessAcceptsCreditCards":"True","RestaurantsTakeOut":"True","RestaurantsGoodForGroups":"True","OutdoorSeating":"False","Caters":"True","Ambience":"{'romantic': False, 'intimate': False, 'touristy': False, 'hipster': False, 'divey': False, 'classy': False, 'trendy': False, 'upscale': False, 'casual': False}","NoiseLevel":"u'quiet'","BusinessParking":"{'garage': False, 'street': False, 'validated': False, 'lot': True, 'valet': False}","RestaurantsReservations":"False","Alcohol":"u'none'","RestaurantsDelivery":"False","RestaurantsPriceRange2":"1"},"categories":"Restaurants, Filipino","hours":{"Monday":"10:0-19:0","Tuesday":"10:0-19:0","Wednesday":"10:0-19:0","Thursday":"10:0-19:0","Friday":"10:0-19:0","Saturday":"9:0-19:0"}}
{"business_id":"M_THnNDHs29aylcK-JqS1A","name":"Professional Healthcare of Pinellas","address":"1839 Central Ave","city":"Saint Petersburg","state":"FL","postal_code":"33713","latitude":27.7713566,"longitude":-82.6586115,"stars":1.5,"review_count":6,"is_open":1,"attributes":{"ByAppointmentOnly":"True","BusinessAcceptsCreditCards":"True","AcceptsInsurance":"True"},"categories":"Doctors, Internal Medicine, Health & Medical","hours":null}
{"business_id":"uCQqtYW_xc1EJRm7NyakdA","name":"Yogurt Beach","address":"2500 E 2nd St","city":"Reno","state":"NV","postal_code":"89595","latitude":39.523904,"longitude":-119.777525,"stars":4.5,"review_count":12,"is_open":1,"attributes":{"BikeParking":"False","RestaurantsTakeOut":"True","Caters":"False","RestaurantsPriceRange2":"1","BusinessParking":"{'garage': False, 'street': False, 'validated': False, 'lot': False, 'valet': False}","BusinessAcceptsCreditCards":"True"},"categories":"Food, Desserts","hours":{"Monday":"12:0-22:0","Tuesday":"12:0-22:0","Wednesday":"12:0-22:0","Thursday":"12:0-22:0","Friday":"12:0-23:15","Saturday":"12:0-23:15","Sunday":"12:0-22:0"}}
{"business_id":"9LLxOjEhLNcdx8i4lL6EUQ","name":"Banfield Pet Hospital","address":"7801 US 31 S","city":"Indianapolis","state":"IN","postal_code":"46227","latitude":39.6531323637,"longitude":-86.135859,"stars":2.0,"review_count":10,"is_open":1,"attributes":null,"categories":"Pets, Veterinarians","hours":{"Monday":"7:0-18:0","Tuesday":"7:0-18:0","Wednesday":"7:0-18:0","Thursday":"7:0-18:0","Friday":"7:0-18:0","Saturday":"7:0-18:0"}}
{"business_id":"h-y5azB-VlQAT3m7Ff2g2Q","name":"P's & Q's - Premium Quality","address":"820 S St","city":"Philadelphia","state":"PA","postal_code":"19147","latitude":39.942515,"longitude":-75.156468,"stars":5.0,"review_count":16,"is_open":1,"attributes":{"BusinessParking":"{'garage': False, 'street': True, 'validated': False, 'lot': False, 'valet': False}","BikeParking":"True","BusinessAcceptsCreditCards":"True","RestaurantsPriceRange2":"3"},"categories":"Fashion, Shopping, Men's Clothing","hours":null}
{"business_id":"XHTgtBSwLnwRHzKSbea2Fg","name":"Michael Kors","address":"8701 Keystone Crossing, Ste 28","city":"Indianapolis","state":"IN","postal_code":"46240","latitude":39.914404,"longitude":-86.107287,"stars":4.0,"review_count":6,"is_open":1,"attributes":{"BusinessAcceptsCreditCards":"True","BusinessParking":"{'garage': False, 'street': False, 'validated': False, 'lot': False, 'valet': False}","RestaurantsPriceRange2":"3"},"categories":"Shopping, Fashion","hours":null}
{"business_id":"WYYdQDjx-DsCanlP0DpImQ","name":"J Sushi","address":"243 S 10th St","city":"Philadelphia","state":"PA","postal_code":"19107","latitude":39.9470334,"longitude":-75.1574339,"stars":4.5,"review_count":72,"is_open":0,"attributes":{"Ambience":"{'touristy': False, 'hipster': False, 'romantic': False, 'divey': False, 'intimate': False, 'trendy': False, 'upscale': False, 'classy': False, 'casual': False}","GoodForMeal":"{'dessert': False, 'latenight': False, 'lunch': True, 'dinner': True, 'brunch': False, 'breakfast': False}","Alcohol":"'none'","BikeParking":"True","RestaurantsPriceRange2":"2","OutdoorSeating":"False","RestaurantsAttire":"'casual'","BusinessAcceptsCreditCards":"True","RestaurantsTakeOut":"True","WheelchairAccessible":"True","GoodForKids":"True","WiFi":"u'free'","HasTV":"True","RestaurantsDelivery":"True","Caters":"True","RestaurantsTableService":"True","BusinessParking":"{'garage': False, 'street': True, 'validated': False, 'lot': False, 'valet': False}","NoiseLevel":"u'average'","RestaurantsReservations":"True","RestaurantsGoodForGroups":"True"},"categories":"Seafood, Restaurants, Sushi Bars, Japanese","hours":{"Tuesday":"11:0-22:0","Wednesday":"11:0-22:0","Thursday":"11:0-22:0","Friday":"11:0-22:30","Saturday":"12:0-22:30","Sunday":"12:0-22:0"}}
{"business_id":"U2htB9qk4hOXCdkccvvW0Q","name":"D's Toys","address":"2616 Brill Rd, Ste A","city":"Indianapolis","state":"IN","postal_code":"46225","latitude":39.7291579,"longitude":-86.1544775,"stars":5.0,"review_count":5,"is_open":1,"attributes":{"BusinessAcceptsCreditCards":"True"},"categories":"Shopping, Books, Mags, Music & Video, Toy Stores, Hobby Shops, Comic Books","hours":{"Tuesday":"11:0-19:0","Wednesday":"11:0-19:0","Thursday":"11:0-19:0","Friday":"11:0-19:0","Saturday":"11:0-19:0","Sunday":"12:0-17:0"}}
{"business_id":"aNtKyc2rr-uK5cqzY9TVQQ","name":"Chipotle Mexican Grill","address":"10160 Ulmerton Rd","city":"Largo","state":"FL","postal_code":"33771","latitude":27.894167,"longitude":-82.779866,"stars":3.0,"review_count":19,"is_open":1,"attributes":{"RestaurantsPriceRange2":"1","Caters":"True","BikeParking":"True","GoodForKids":"True","BusinessParking":"{'garage': False, 'street': False, 'validated': False, 'lot': True, 'valet': False}","RestaurantsGoodForGroups":"False","Ambience":"{'touristy': False, 'hipster': False, 'romantic': False, 'divey': False, 'intimate': False, 'trendy': False, 'upscale': False, 'classy': False, 'casual': False}","NoiseLevel":"'average'","OutdoorSeating":"True","GoodForMeal":"{'dessert': False, 'latenight': False, 'lunch': True, 'dinner': False, 'brunch': False, 'breakfast': False}","BusinessAcceptsCreditCards":"True","RestaurantsReservations":"False","Alcohol":"'none'","RestaurantsAttire":"'casual'","RestaurantsDelivery":"True","WiFi":"'free'","HasTV":"True","DriveThru":"True","RestaurantsTableService":"False","RestaurantsTakeOut":"True"},"categories":"Mexican, Fast Food, Restaurants","hours":{"Monday":"0:0-0:0","Tuesday":"10:45-22:0","Wednesday":"10:45-22:0","Thursday":"10:45-22:0","Friday":"10:45-22:0","Saturday":"10:45-22:0","Sunday":"10:45-22:0"}}
{"business_id":"yv6kSKxDdZTsvHL25K-U2g","name":"Nash Painting","address":"471 Chestnut St","city":"Nashville","state":"TN","postal_code":"37203","latitude":36.142642,"longitude":-86.7708619,"stars":4.5,"review_count":45,"is_open":1,"attributes":{"BusinessAcceptsCreditCards":"True","ByAppointmentOnly":"True"},"categories":"Painters, Home Services, Decks & Railing, Contractors, Pressure Washers","hours":{"Monday":"0:0-0:0","Tuesday":"8:0-17:0","Wednesday":"8:0-17:0","Thursday":"8:0-17:0","Friday":"8:0-17:0"}}
{"business_id":"hUQ9Z7kQeabvhPOAQOVV1A","name":"Rathbone Mansions","address":"1244 Esplanade Ave","city":"New Orleans","state":"LA","postal_code":"70116","latitude":29.9670548,"longitude":-90.0658282,"stars":3.5,"review_count":67,"is_open":1,"attributes":{"WiFi":"u'free'","BusinessAcceptsCreditCards":"True","RestaurantsPriceRange2":"2"},"categories":"Hotels, Hotels & Travel, Bed & Breakfast, Event Planning & Services","hours":null}
{"business_id":"t5tBd4p7BA7hNDitBUXxrw","name":"Boise Therapeutic Massage Center","address":"7153 W Emerald St","city":"Boise","state":"ID","postal_code":"83704","latitude":43.6119488,"longitude":-116.2711098,"stars":4.0,"review_count":68,"is_open":1,"attributes":{"WheelchairAccessible":"True","BusinessAcceptsCreditCards":"True","AcceptsInsurance":"True","RestaurantsPriceRange2":"2","BikeParking":"True","BusinessParking":"{'garage': False, 'street': False, 'validated': False, 'lot': True, 'valet': False}","WiFi":"u'free'","ByAppointmentOnly":"True"},"categories":"Massage, Health & Medical, Medical Spas, Beauty & Spas","hours":{"Monday":"9:0-21:0","Tuesday":"9:0-21:0","Wednesday":"9:0-21:0","Thursday":"9:0-21:0","Friday":"9:0-21:0","Saturday":"9:0-21:0","Sunday":"12:0-19:0"}}
{"business_id":"oCFcoyGx2VRZ8MHXEsV8tQ","name":"Giant Food Store","address":"4801 Edgmont Ave","city":"Brookhaven","state":"PA","postal_code":"19015","latitude":39.877374,"longitude":-75.394007,"stars":2.5,"review_count":10,"is_open":0,"attributes":{"BusinessAcceptsCreditCards":"True","RestaurantsPriceRange2":"2","BikeParking":"True","BusinessParking":"{'garage': False, 'street': False, 'validated': False, 'lot': True, 'valet': False}"},"categories":"Food, Grocery","hours":null}
{"business_id":"FC6ef4rMMZKNov_-A9M6iQ","name":"TD Bank Havertown","address":"120 W Eagle Rd","city":"Haverford","state":"PA","postal_code":"19083","latitude":39.985661,"longitude":-75.3148439,"stars":1.5,"review_count":6,"is_open":1,"attributes":null,"categories":"Banks & Credit Unions, Financial Services","hours":null}
{"business_id":"X_E7U2lVNEwbH_gpOBmAHQ","name":"Cerveza Jack's","address":"135 2nd Ave N","city":"Nashville","state":"TN","postal_code":"37201","latitude":36.162799,"longitude":-86.776016,"stars":4.0,"review_count":182,"is_open":1,"attributes":{"GoodForDancing":"True","Smoking":"u'no'","GoodForKids":"False","RestaurantsDelivery":"False","BikeParking":"True","RestaurantsAttire":"'casual'","RestaurantsPriceRange2":"2","RestaurantsGoodForGroups":"True","CoatCheck":"False","DogsAllowed":"False","RestaurantsTakeOut":"True","WiFi":"'free'","DriveThru":"False","RestaurantsTableService":"True","BusinessParking":"{'garage': None, 'street': True, 'validated': None, 'lot': False, 'valet': False}","BestNights":"{'monday': False, 'tuesday': True, 'friday': False, 'wednesday': False, 'thursday': False, 'sunday': False, 'saturday': True}","RestaurantsReservations":"False","NoiseLevel":"u'loud'","Music":"{'dj': False, 'background_music': False, 'no_music': False, 'jukebox': False, 'live': True, 'video': False, 'karaoke': False}","HasTV":"True","HappyHour":"True","Alcohol":"u'full_bar'","Caters":"False","OutdoorSeating":"None","Ambience":"{u'divey': None, u'hipster': None, u'casual': True, u'touristy': None, u'trendy': True, u'intimate': False, u'romantic': False, u'classy': None, u'upscale': False}","BusinessAcceptsCreditCards":"True","GoodForMeal":"{'dessert': None, 'latenight': True, 'lunch': True, 'dinner': True, 'brunch': None, 'breakfast': False}"},"categories":"Nightlife, Restaurants, Bars, Mexican","hours":{"Monday":"0:0-0:0","Wednesday":"11:0-22:0","Thursday":"11:0-22:0","Friday":"11:0-1:0","Saturday":"11:0-1:0","Sunday":"11:0-22:0"}}
{"business_id":"EYA514FX4H8MwvFjv2ORQA","name":"Carsmetics","address":"3990 Ulmerton Rd","city":"Clearwater","state":"FL","postal_code":"33762","latitude":27.8931855254,"longitude":-82.6876049487,"stars":4.5,"review_count":30,"is_open":1,"attributes":{"BusinessAcceptsCreditCards":"True","WiFi":"u'free'"},"categories":"Body Shops, Automotive","hours":{"Monday":"8:0-18:0","Tuesday":"8:0-18:0","Wednesday":"8:0-18:0","Thursday":"8:0-18:0","Friday":"8:0-18:0","Saturday":"9:0-13:0"}}
{"business_id":"G4lRmwDHdvhZAhmtlsYYBw","name":"Wendy's","address":"741 Thompson Ln","city":"Nashville","state":"TN","postal_code":"37204","latitude":36.112075744,"longitude":-86.7674462724,"stars":1.5,"review_count":37,"is_open":1,"attributes":{"RestaurantsPriceRange2":"1","BikeParking":"False","RestaurantsAttire":"'casual'","RestaurantsTakeOut":"True","GoodForKids":"True","OutdoorSeating":"False","BusinessAcceptsCreditCards":"True","RestaurantsReservations":"False","RestaurantsGoodForGroups":"True","GoodForMeal":"{'dessert': False, 'latenight': False, 'lunch': False, 'dinner': False, 'brunch': False, 'breakfast': False}","HasTV":"True","BusinessParking":"{'garage': False, 'street': False, 'validated': False, 'lot': True, 'valet': False}","Alcohol":"u'none'","RestaurantsDelivery":"True","Ambience":"{'touristy': False, 'hipster': False, 'romantic': False, 'divey': False, 'intimate': False, 'trendy': False, 'upscale': False, 'classy': False, 'casual': False}"},"categories":"Burgers, Restaurants, Fast Food","hours":{"Monday":"10:0-0:0","Tuesday":"10:0-0:0","Wednesday":"10:0-0:0","Thursday":"10:0-0:0","Friday":"10:0-1:0","Saturday":"10:0-1:0","Sunday":"10:0-0:0"}}
{"business_id":"DTUfAthScapCGnOnnLUhPA","name":"Stitchers' Dream","address":"221 S Easton Rd","city":"Glenside","state":"PA","postal_code":"19038","latitude":40.0978388,"longitude":-75.1558378,"stars":3.5,"review_count":9,"is_open":0,"attributes":{"BusinessAcceptsCreditCards":"True","RestaurantsPriceRange2":"1","BikeParking":"True","BusinessAcceptsBitcoin":"False","BusinessParking":"{'garage': False, 'street': True, 'validated': False, 'lot': True, 'valet': False}","WheelchairAccessible":"False"},"categories":"Art Classes, Shopping, Education, Arts & Crafts, Appliances & Repair, Knitting Supplies, Art Supplies, Local Services","hours":{"Monday":"10:0-15:0","Tuesday":"10:0-15:0","Wednesday":"10:0-19:30","Thursday":"10:0-17:30","Friday":"10:0-16:0","Saturday":"10:0-16:0"}}
{"business_id":"DcUDIlxFsvqPvFh8_lb4Sw","name":"Lott's Service","address":"908 N Lenola Rd, Ste 3","city":"Moorestown","state":"NJ","postal_code":"08057","latitude":39.973753,"longitude":-74.995949,"stars":1.5,"review_count":8,"is_open":1,"attributes":null,"categories":"Gas Stations, Automotive, Towing","hours":null}
{"business_id":"zs4d4DqSp5zh3HGFh-PiiQ","name":"Something Special","address":"107 Heady Dr","city":"Nashville","state":"TN","postal_code":"37205","latitude":36.0982798,"longitude":-86.8714149,"stars":2.5,"review_count":21,"is_open":1,"attributes":{"BusinessAcceptsCreditCards":"True"},"categories":"Event Planning & Services, Caterers","hours":{"Monday":"9:30-18:0","Tuesday":"9:30-18:0","Wednesday":"9:30-18:0","Thursday":"9:30-18:0","Friday":"9:30-18:0","Saturday":"9:30-17:0"}}
{"business_id":"BxhkoR6cscJwwex8gx31OA","name":"Bar-B-Cutie","address":"1787 Gallatin Pike N","city":"Madison","state":"TN","postal_code":"37115","latitude":36.296536,"longitude":-86.700179,"stars":3.5,"review_count":40,"is_open":1,"attributes":{"GoodForKids":"True","BusinessAcceptsCreditCards":"True","BusinessParking":"{'garage': False, 'street': False, 'validated': False, 'lot': True, 'valet': False}","Alcohol":"u'none'","RestaurantsTakeOut":"True","OutdoorSeating":"False","RestaurantsAttire":"u'casual'","NoiseLevel":"'average'","RestaurantsGoodForGroups":"True","RestaurantsReservations":"False","WiFi":"u'no'","Caters":"True","DriveThru":"True","Ambience":"{u'divey': None, u'hipster': False, u'casual': True, u'touristy': None, u'trendy': False, u'intimate': False, u'romantic': False, u'classy': False, u'upscale': False}","BikeParking":"True","HasTV":"True","RestaurantsDelivery":"True","RestaurantsPriceRange2":"2"},"categories":"Restaurants, Barbeque","hours":{"Monday":"10:0-20:30","Tuesday":"10:0-20:30","Wednesday":"10:0-20:30","Thursday":"10:0-20:30","Friday":"10:0-21:30","Saturday":"10:0-21:30","Sunday":"10:0-20:0"}}
{"business_id":"2oxrOO3c9_mQmqM9kwEm9Q","name":"Total Access Urgent Care","address":"2980 Dougherty Ferry Rd","city":"Saint Louis","state":"MO","postal_code":"63021","latitude":38.568086,"longitude":-90.475388,"stars":3.5,"review_count":6,"is_open":1,"attributes":{"BusinessAcceptsCreditCards":"True","WiFi":"u'free'","AcceptsInsurance":"True"},"categories":"Health & Medical, Urgent Care","hours":{"Monday":"8:0-20:0","Tuesday":"8:0-20:0","Wednesday":"8:0-20:0","Thursday":"8:0-20:0","Friday":"8:0-20:0","Saturday":"8:0-20:0","Sunday":"8:0-20:0"}}
{"business_id":"Ms5xG8i4p80KSMcF3tt4ug","name":"Sal DeForte's Ristorante","address":"1400 Parkway Ave","city":"Ewing","state":"NJ","postal_code":"08628","latitude":40.2668877,"longitude":-74.8056572,"stars":4.0,"review_count":52,"is_open":1,"attributes":{"RestaurantsAttire":"'casual'","RestaurantsPriceRange2":"2","RestaurantsReservations":"True","RestaurantsTakeOut":"True","BusinessParking":"{'garage': False, 'street': False, 'validated': False, 'lot': True, 'valet': False}","Caters":"True","BusinessAcceptsCreditCards":"True","Corkage":"False","NoiseLevel":"u'average'","BYOBCorkage":"'yes_free'","RestaurantsGoodForGroups":"True","GoodForKids":"True","BikeParking":"True","Alcohol":"u'none'","WiFi":"'no'","OutdoorSeating":"True","HasTV":"True","GoodForMeal":"{u'breakfast': False, u'brunch': False, u'lunch': True, u'dinner': True, u'latenight': False, u'dessert': None}","RestaurantsDelivery":"True","Ambience":"{u'divey': False, u'hipster': False, u'casual': True, u'touristy': False, u'trendy': False, u'intimate': None, u'romantic': None, u'classy': None, u'upscale': False}","RestaurantsTableService":"True"},"categories":"Italian, Restaurants","hours":{"Monday":"16:0-20:0","Tuesday":"16:0-20:0","Wednesday":"16:30-20:0","Thursday":"16:0-20:0","Friday":"16:30-21:0","Saturday":"16:30-21:0","Sunday":"16:30-20:0"}}
{"business_id":"yswijv6wP2fKbMqAiEZ0vw","name":"Reno Bighorns","address":"400 N Center St","city":"Reno","state":"NV","postal_code":"89501","latitude":39.5309239,"longitude":-119.8122604,"stars":5.0,"review_count":6,"is_open":0,"attributes":{"GoodForKids":"True"},"categories":"Active Life, Basketball Courts, Stadiums & Arenas, Arts & Entertainment, Professional Sports Teams","hours":{"Monday":"9:0-17:0","Tuesday":"9:0-17:0","Wednesday":"9:0-17:0","Thursday":"9:0-17:0","Friday":"9:0-17:0"}}
{"business_id":"m9ncuZp0nEVhIwu24G-HRw","name":"CVS Pharmacy","address":"2215 Shelby St","city":"Indianapolis","state":"IN","postal_code":"46203","latitude":39.7371,"longitude":-86.1391,"stars":2.5,"review_count":10,"is_open":1,"attributes":{"BusinessParking":"None","RestaurantsPriceRange2":"None","WheelchairAccessible":"True","BusinessAcceptsCreditCards":"None","RestaurantsDelivery":"True","RestaurantsTakeOut":"False","DriveThru":"True"},"categories":"Pharmacy, Health & Medical, Convenience Stores, Drugstores, Food, Shopping","hours":{"Monday":"8:0-21:0","Tuesday":"10:0-20:0","Wednesday":"8:0-21:0","Thursday":"8:0-21:0","Friday":"8:0-21:0","Saturday":"8:0-21:0","Sunday":"8:0-21:0"}}
{"business_id":"QZU7TcrztBb3tXaPbVCkXg","name":"805 Ink","address":"1228 State St","city":"Santa Barbara","state":"CA","postal_code":"93101","latitude":34.4241297,"longitude":-119.7053211,"stars":4.5,"review_count":68,"is_open":1,"attributes":{"RestaurantsPriceRange2":"2","BusinessAcceptsCreditCards":"True","ByAppointmentOnly":"False","BusinessParking":"{'garage': True, 'street': True, 'validated': False, 'lot': False, 'valet': False}","BusinessAcceptsBitcoin":"False","WiFi":"u'free'","BikeParking":"True","WheelchairAccessible":"True"},"categories":"Beauty & Spas, Tattoo","hours":{"Monday":"12:0-20:0","Tuesday":"12:0-20:0","Wednesday":"12:0-20:0","Thursday":"12:0-20:0","Friday":"12:0-20:0","Saturday":"12:0-20:0","Sunday":"12:0-18:0"}}
{"business_id":"l6VYP8AxIoW6U52aDo8fXg","name":"HMV Superstore","address":"8882 170th Street","city":"Edmonton","state":"AB","postal_code":"T5T 4M2","latitude":53.5114948,"longitude":-113.6450474,"stars":4.0,"review_count":24,"is_open":0,"attributes":{"BusinessParking":"{'garage': False, 'street': False, 'validated': False, 'lot': True, 'valet': False}","RestaurantsPriceRange2":"2","BikeParking":"True"},"categories":"Home & Garden, Music & DVDs, Fashion, Accessories, Shopping, Home Decor, Books, Mags, Music & Video, Video Game Stores","hours":{"Monday":"10:0-21:0","Tuesday":"9:30-21:0","Wednesday":"10:0-21:0","Thursday":"10:0-21:0","Friday":"10:0-21:0","Saturday":"10:0-21:0","Sunday":"11:0-18:0"}}
{"business_id":"wMAxTyExktVtfyqKAfApbA","name":"Tuffy Tire & Auto Service Center","address":"4353 Gunn Hwy","city":"Tampa","state":"FL","postal_code":"33618","latitude":28.0458684582,"longitude":-82.515059,"stars":4.0,"review_count":16,"is_open":1,"attributes":{"ByAppointmentOnly":"False","WiFi":"u'free'","BusinessAcceptsCreditCards":"True"},"categories":"Oil Change Stations, Automotive, Tires, Auto Repair","hours":{"Monday":"0:0-0:0","Tuesday":"7:30-18:0","Wednesday":"7:30-18:0","Thursday":"7:30-18:0","Friday":"7:30-18:0","Saturday":"7:30-17:0"}}
{"business_id":"E-nhxuu3zbt02oCj_1AFng","name":"Selah","address":"510 N 7th Ave, Ste 130","city":"Tucson","state":"AZ","postal_code":"85705","latitude":32.2280919,"longitude":-110.9698038,"stars":5.0,"review_count":60,"is_open":1,"attributes":{"WheelchairAccessible":"True","BikeParking":"True","BusinessParking":"{'garage': False, 'street': False, 'validated': False, 'lot': True, 'valet': False}","RestaurantsPriceRange2":"1","ByAppointmentOnly":"True","BusinessAcceptsCreditCards":"True","WiFi":"u'free'"},"categories":"Waxing, Hair Removal, Skin Care, Eyelash Service, Beauty & Spas","hours":{"Monday":"0:0-0:0","Tuesday":"10:0-18:0","Wednesday":"10:0-18:0","Thursday":"10:0-18:0","Friday":"10:0-18:0","Saturday":"9:0-17:0","Sunday":"9:0-17:0"}}
{"business_id":"vvE3HVfxlx9UYctKPr0dbw","name":"Inspired By Purpose Wellness Center & Yoga Studio","address":"2910 Mill St, Ste B","city":"Reno","state":"NV","postal_code":"89502","latitude":39.5174106,"longitude":-119.7783471,"stars":4.5,"review_count":9,"is_open":1,"attributes":{"GoodForKids":"True","BikeParking":"True","ByAppointmentOnly":"True","AcceptsInsurance":"False","BusinessAcceptsCreditCards":"True","BusinessParking":"{u'valet': False, u'garage': False, u'street': False, u'lot': True, u'validated': False}","DogsAllowed":"False","WheelchairAccessible":"False"},"categories":"Weight Loss Centers, Health & Medical, Life Coach, Meditation Centers, Professional Services, Yoga, Active Life, Fitness & Instruction, Trainers, Nutritionists","hours":{"Monday":"0:0-0:0","Tuesday":"11:45-20:0","Wednesday":"5:45-20:0","Thursday":"5:45-20:0","Friday":"5:30-13:0","Saturday":"8:30-11:30"}}
{"business_id":"JnbSkfsl_j2dUoHncBTonA","name":"Collision XS","address":"1416 Centreville Ave","city":"Belleville","state":"IL","postal_code":"62220","latitude":38.5022786,"longitude":-90.00616971,"stars":4.5,"review_count":6,"is_open":1,"attributes":{"WiFi":"u'free'","BusinessAcceptsCreditCards":"True"},"categories":"Auto Repair, Body Shops, Automotive","hours":{"Monday":"8:0-17:0","Tuesday":"8:0-17:0","Wednesday":"8:0-17:0","Thursday":"8:0-17:0","Friday":"8:0-17:0"}}
{"business_id":"5BYQP7i7ckUlgSzX4Yhnmw","name":"A-1 Expert Cleaning Services","address":"34 Ring Ln","city":"Levittown","state":"PA","postal_code":"19055","latitude":40.1502639,"longitude":-74.8448876,"stars":5.0,"review_count":5,"is_open":1,"attributes":{"BusinessAcceptsCreditCards":"False"},"categories":"Home Cleaning, Home Services, Office Cleaning, Professional Services, Window Washing","hours":{"Monday":"7:0-22:0","Tuesday":"7:0-22:0","Wednesday":"7:0-22:0","Thursday":"7:0-22:0","Friday":"7:0-22:0","Saturday":"7:0-22:0","Sunday":"7:0-22:0"}}
{"business_id":"xAAhPuZ8FG6OlvAw5m1BVQ","name":"Willard Park","address":"1901 E Washington St","city":"Indianapolis","state":"IN","postal_code":"46201","latitude":39.7667851,"longitude":-86.12748,"stars":3.5,"review_count":5,"is_open":1,"attributes":{"BusinessAcceptsCreditCards":"True","ByAppointmentOnly":"False","GoodForKids":"True","BikeParking":"True","BusinessParking":"{'garage': False, 'street': False, 'validated': False, 'lot': True, 'valet': False}"},"categories":"Active Life, Playgrounds, Parks, Swimming Pools","hours":null}
{"business_id":"DfGNZQsCe9k2BxazCf0p6g","name":"Reno Family Chiropractic","address":"2900 Clear Acre Ln, Ste B","city":"Reno","state":"NV","postal_code":"89512","latitude":39.5576887,"longitude":-119.791299,"stars":4.5,"review_count":19,"is_open":1,"attributes":{"ByAppointmentOnly":"True","BusinessAcceptsCreditCards":"True","WiFi":"u'free'","AcceptsInsurance":"True"},"categories":"Health & Medical, Chiropractors","hours":{"Monday":"7:30-17:0","Tuesday":"7:30-16:0","Wednesday":"7:30-17:0","Thursday":"7:30-16:0","Friday":"7:30-17:0"}}
{"business_id":"07JLsUInZr5OSiYH2XVi4g","name":"Elegance African Hair Braiding","address":"540 N 52nd St","city":"Philadelphia","state":"PA","postal_code":"19131","latitude":39.9690954,"longitude":-75.2255953,"stars":2.0,"review_count":8,"is_open":1,"attributes":{"Smoking":"None","RestaurantsPriceRange2":"2","BusinessAcceptsCreditCards":"False","ByAppointmentOnly":"False","BusinessParking":"None","WiFi":"None"},"categories":"Beauty & Spas, Hair Stylists, Hair Extensions, Hair Salons","hours":{"Monday":"9:0-18:0","Tuesday":"9:0-18:0","Wednesday":"9:0-18:0","Thursday":"9:0-18:0","Friday":"9:0-18:0","Saturday":"8:0-18:0","Sunday":"9:0-17:0"}}
{"business_id":"hPAmGKnDqummngSTOJN_8g","name":"Timber Creek Park","address":"236 Taylor Ave","city":"Gloucester Township","state":"NJ","postal_code":"08012","latitude":39.831468,"longitude":-75.058986,"stars":4.5,"review_count":86,"is_open":1,"attributes":{"GoodForKids":"True","BusinessParking":"{'garage': False, 'street': False, 'validated': False, 'lot': True, 'valet': False}","ByAppointmentOnly":"False","BikeParking":"True","DogsAllowed":"True"},"categories":"Dog Parks, Active Life, Parks","hours":{"Monday":"7:0-19:0","Tuesday":"7:0-19:0","Wednesday":"7:0-19:0","Thursday":"7:0-19:0","Friday":"7:0-19:0","Saturday":"7:0-19:0","Sunday":"7:0-19:0"}}
{"business_id":"ORL4JE6tz3rJxVqkdKfegA","name":"Gaylord Opryland Resort & Convention Center","address":"2800 Opryland Dr","city":"Nashville","state":"TN","postal_code":"37214","latitude":36.2115923083,"longitude":-86.6943191727,"stars":3.0,"review_count":1639,"is_open":1,"attributes":{"BusinessAcceptsCreditCards":"True","ByAppointmentOnly":"True","RestaurantsDelivery":"True","RestaurantsPriceRange2":"3","RestaurantsGoodForGroups":"True","GoodForKids":"True","OutdoorSeating":"True","RestaurantsReservations":"True","HasTV":"True","RestaurantsTakeOut":"True","NoiseLevel":"u'very_loud'","RestaurantsAttire":"'casual'","BusinessAcceptsBitcoin":"False","Music":"{'dj': True, 'background_music': True, 'no_music': False, 'jukebox': False, 'live': True, 'video': False, 'karaoke': True}","BusinessParking":"{'garage': False, 'street': False, 'validated': False, 'lot': True, 'valet': False}","GoodForMeal":"{'dessert': False, 'latenight': True, 'lunch': True, 'dinner': True, 'brunch': False, 'breakfast': False}","BYOBCorkage":"'no'","Smoking":"u'outdoor'","BYOB":"True","RestaurantsTableService":"True","Caters":"True","Alcohol":"'full_bar'","DogsAllowed":"False","WheelchairAccessible":"True","HappyHour":"True","GoodForDancing":"False","BestNights":"{'monday': False, 'tuesday': False, 'friday': True, 'wednesday': False, 'thursday': False, 'sunday': True, 'saturday': True}","WiFi":"u'paid'","Ambience":"{'romantic': False, 'intimate': False, 'touristy': True, 'hipster': False, 'divey': False, 'classy': False, 'trendy': False, 'upscale': False, 'casual': False}","CoatCheck":"True"},"categories":"Venues & Event Spaces, Performing Arts, Arts & Entertainment, Hotels & Travel, Food, Convenience Stores, American (New), Beauty & Spas, Restaurants, Museums, Event Planning & Services, Hotels, Cinema, Resorts, Day Spas","hours":{"Monday":"0:0-0:0","Tuesday":"0:0-0:0","Wednesday":"0:0-0:0","Thursday":"0:0-0:0","Friday":"0:0-0:0","Saturday":"0:0-0:0","Sunday":"0:0-0:0"}}
{"business_id":"1GnJDrpp-jyDRCptavD9RQ","name":"Rita's Italian Ice","address":"5004 Pennell Rd","city":"Aston","state":"PA","postal_code":"19014","latitude":39.8649175,"longitude":-75.4275762,"stars":4.0,"review_count":7,"is_open":1,"attributes":{"BusinessParking":"{'garage': False, 'street': False, 'validated': False, 'lot': True, 'valet': False}","BusinessAcceptsCreditCards":"True","RestaurantsPriceRange2":"1","BusinessAcceptsBitcoin":"False","BikeParking":"True","RestaurantsTakeOut":"True","Caters":"True","WiFi":"u'no'"},"categories":"Food, Ice Cream & Frozen Yogurt, Desserts, Shaved Ice","hours":{"Monday":"12:0-21:0","Tuesday":"12:0-21:0","Wednesday":"12:0-21:0","Thursday":"12:0-21:0","Friday":"12:0-21:0","Saturday":"12:0-21:0","Sunday":"12:0-21:0"}}
{"business_id":"jkY8aotwcAlSHCgoZrF49w","name":"Bay Area Appliance","address":"904 Clearwater Largo Rd N","city":"Largo","state":"FL","postal_code":"33770","latitude":27.9251193,"longitude":-82.7959877,"stars":1.0,"review_count":5,"is_open":0,"attributes":{"RestaurantsPriceRange2":"3"},"categories":"Home & Garden, Local Services, Appliances, Appliances & Repair, Shopping","hours":null}
{"business_id":"YD_eZ4TaFrHYRrJVzOXHfw","name":"Passport Health","address":"1034 S Brentwood Blvd, Ste 710","city":"Saint Louis","state":"MO","postal_code":"63117","latitude":38.6361966,"longitude":-90.3457542,"stars":1.5,"review_count":11,"is_open":1,"attributes":{"ByAppointmentOnly":"True","BusinessAcceptsCreditCards":"True"},"categories":"Medical Centers, Health & Medical","hours":{"Monday":"9:0-17:0","Tuesday":"9:0-17:0","Wednesday":"9:0-17:0","Thursday":"9:0-17:0","Friday":"9:0-17:0"}}
{"business_id":"P10BsKUeoeCeVoK4BS2u0w","name":"Trust Me BBQ","address":"8624 US Hwy 301 S","city":"Riverview","state":"FL","postal_code":"33569","latitude":27.8652573,"longitude":-82.3260903,"stars":4.0,"review_count":29,"is_open":0,"attributes":{"Ambience":"{'romantic': False, 'intimate': False, 'touristy': False, 'hipster': False, 'divey': True, 'classy': False, 'trendy': False, 'upscale': False, 'casual': False}","RestaurantsAttire":"u'casual'","RestaurantsPriceRange2":"1","Alcohol":"u'none'","RestaurantsGoodForGroups":"True","WiFi":"u'no'","RestaurantsReservations":"False","BusinessParking":"{'garage': False, 'street': False, 'validated': False, 'lot': False, 'valet': False}","BusinessAcceptsCreditCards":"True","RestaurantsDelivery":"False","RestaurantsTakeOut":"True","GoodForKids":"True","BikeParking":"False","Caters":"True","NoiseLevel":"u'quiet'","HasTV":"False","OutdoorSeating":"True"},"categories":"Restaurants, Barbeque","hours":null}
{"business_id":"7Du9oW73YcYFmXdtU5aiSg","name":"Kinjo's Japanese Restaurant","address":"2875 Tyrone Blvd N","city":"Saint Petersburg","state":"FL","postal_code":"33710","latitude":27.7972626,"longitude":-82.7339127,"stars":3.5,"review_count":17,"is_open":0,"attributes":{"RestaurantsPriceRange2":"2","RestaurantsGoodForGroups":"True","Alcohol":"u'beer_and_wine'","RestaurantsAttire":"u'casual'","BusinessParking":"{'garage': False, 'street': False, 'validated': False, 'lot': True, 'valet': False}","BusinessAcceptsCreditCards":"True","NoiseLevel":"u'quiet'","RestaurantsDelivery":"False","RestaurantsReservations":"True","HasTV":"True","Ambience":"{'romantic': False, 'intimate': False, 'touristy': False, 'hipster': False, 'divey': False, 'classy': False, 'trendy': False, 'upscale': False, 'casual': True}","OutdoorSeating":"False","RestaurantsTakeOut":"True","GoodForKids":"True"},"categories":"Japanese, Sushi Bars, Restaurants","hours":{"Monday":"12:0-22:0","Tuesday":"12:0-22:0","Wednesday":"12:0-22:0","Thursday":"12:0-22:0","Friday":"12:0-1:0","Saturday":"12:0-1:0","Sunday":"12:0-22:0"}}
{"business_id":"h_qlv6CIXGVurFOhFQ945w","name":"Tim Hortons","address":"17004 111 Avenue NW","city":"Edmonton","state":"AB","postal_code":"T5S 2X1","latitude":53.5599789914,"longitude":-113.6162690363,"stars":3.5,"review_count":6,"is_open":1,"attributes":{"OutdoorSeating":"False","RestaurantsPriceRange2":"1","WiFi":"u'free'","DogsAllowed":"True","BikeParking":"True","RestaurantsGoodForGroups":"True","RestaurantsReservations":"False","RestaurantsTakeOut":"True","GoodForKids":"True","BusinessParking":"{u'valet': False, u'garage': None, u'street': None, u'lot': True, u'validated': None}"},"categories":"Coffee & Tea, Food","hours":{"Monday":"0:0-0:0","Tuesday":"0:0-0:0","Wednesday":"0:0-0:0","Thursday":"0:0-0:0","Friday":"0:0-0:0","Saturday":"0:0-0:0","Sunday":"0:0-0:0"}}
{"business_id":"QjV4v7q_pt7tt3K1US7IHg","name":"PDQ Temple Terrace","address":"5112 E Fowler Ave","city":"Tampa","state":"FL","postal_code":"33617","latitude":28.0548882706,"longitude":-82.3995484,"stars":3.0,"review_count":5,"is_open":1,"attributes":{"RestaurantsReservations":"False","BusinessAcceptsCreditCards":"True","Alcohol":"u'none'","RestaurantsTakeOut":"True","RestaurantsDelivery":"True","Caters":"True"},"categories":"Fast Food, Sandwiches, Chicken Shop, Restaurants","hours":{"Monday":"11:0-21:0","Tuesday":"11:0-21:0","Wednesday":"11:0-21:0","Thursday":"11:0-21:0","Friday":"11:0-21:0","Saturday":"11:0-21:0","Sunday":"11:0-21:0"}}
{"business_id":"LGqiubTmpJ-A1L5n7dmc6g","name":"Domino's Pizza","address":"1525 Lapalco Blvd, # A","city":"Harvey","state":"LA","postal_code":"70058","latitude":29.8753202,"longitude":-90.045817,"stars":1.5,"review_count":14,"is_open":0,"attributes":{"RestaurantsGoodForGroups":"False","Caters":"True","BusinessAcceptsCreditCards":"True","WiFi":"u'no'","RestaurantsReservations":"False","Alcohol":"u'none'","RestaurantsPriceRange2":"1","RestaurantsTakeOut":"True","HasTV":"True","BikeParking":"False","RestaurantsAttire":"u'casual'","Ambience":"{'touristy': False, 'hipster': False, 'romantic': False, 'divey': False, 'intimate': False, 'trendy': False, 'upscale': False, 'classy': False, 'casual': False}","RestaurantsDelivery":"False","GoodForKids":"True","OutdoorSeating":"False","BusinessParking":"{'garage': False, 'street': False, 'validated': False, 'lot': True, 'valet': False}"},"categories":"Restaurants, Sandwiches, Pizza, Chicken Wings","hours":{"Monday":"10:0-1:0","Tuesday":"10:0-1:0","Wednesday":"10:0-1:0","Thursday":"10:0-1:0","Friday":"10:0-1:0","Saturday":"10:0-1:0","Sunday":"10:0-1:0"}}
{"business_id":"FTFtoylMzkrzqNVSl-bkKw","name":"Giant Food Stores","address":"60 N 23rd St","city":"Philadelphia","state":"PA","postal_code":"19103","latitude":39.9565280024,"longitude":-75.178013742,"stars":4.0,"review_count":19,"is_open":1,"attributes":{"RestaurantsTakeOut":"True","BusinessParking":"{u'valet': False, u'garage': True, u'street': False, u'lot': True, u'validated': False}","RestaurantsDelivery":"True"},"categories":"Grocery, Food","hours":{"Monday":"6:0-23:0","Tuesday":"6:0-23:0","Wednesday":"6:0-23:0","Thursday":"6:0-23:0","Friday":"6:0-23:0","Saturday":"6:0-23:0","Sunday":"6:0-23:0"}}
{"business_id":"59jkCUm4yHciKL1KW_1HJA","name":"Roma Pizza & Italian Eatery","address":"1103 Main St","city":"Warrington","state":"PA","postal_code":"18976","latitude":40.2295269733,"longitude":-75.1310898382,"stars":2.5,"review_count":25,"is_open":1,"attributes":{"BikeParking":"False","RestaurantsGoodForGroups":"True","NoiseLevel":"u'average'","GoodForKids":"True","HasTV":"True","Caters":"False","RestaurantsPriceRange2":"1","OutdoorSeating":"False","RestaurantsDelivery":"True","WiFi":"u'no'","BusinessParking":"{'garage': False, 'street': False, 'validated': False, 'lot': False, 'valet': False}","BusinessAcceptsCreditCards":"True","Alcohol":"u'none'","RestaurantsReservations":"False","RestaurantsAttire":"u'casual'","Ambience":"{'romantic': False, 'intimate': False, 'touristy': False, 'hipster': False, 'divey': False, 'classy': False, 'trendy': False, 'upscale': False, 'casual': False}","RestaurantsTakeOut":"True"},"categories":"Pizza, Restaurants","hours":{"Monday":"10:0-22:0","Tuesday":"10:0-22:0","Wednesday":"10:0-22:0","Thursday":"10:0-22:0","Friday":"10:0-23:0","Saturday":"10:0-23:0","Sunday":"11:0-22:0"}}
{"business_id":"AzwiKZjVqHOxLaYtPAx8lA","name":"Target","address":"2450 Shoppers Ln","city":"Wyncote","state":"PA","postal_code":"19095","latitude":40.076229,"longitude":-75.155305,"stars":2.5,"review_count":37,"is_open":1,"attributes":{"BusinessParking":"{'garage': False, 'street': False, 'validated': False, 'lot': True, 'valet': False}","BikeParking":"True","BusinessAcceptsCreditCards":"True","RestaurantsPriceRange2":"2","DogsAllowed":"False","CoatCheck":"False","RestaurantsReservations":"False","HappyHour":"False","RestaurantsTableService":"False","HasTV":"False","WiFi":"u'no'","OutdoorSeating":"False","Caters":"False","ByAppointmentOnly":"False","RestaurantsDelivery":"False","RestaurantsTakeOut":"None","WheelchairAccessible":"True"},"categories":"Shopping, Department Stores, Grocery, Fashion, Food, Electronics, Furniture Stores, Home & Garden","hours":{"Monday":"0:0-0:0","Tuesday":"7:0-23:59","Wednesday":"7:0-23:59","Thursday":"7:0-23:59","Friday":"8:0-21:0","Saturday":"7:0-23:59","Sunday":"7:0-22:0"}}
{"business_id":"yM8LlTInbQH4FwWC97lz6w","name":"McDonald's","address":"1919 S Jefferson","city":"St. Louis","state":"MO","postal_code":"63104","latitude":38.6124951839,"longitude":-90.2219420671,"stars":1.5,"review_count":100,"is_open":1,"attributes":{"Alcohol":"u'none'","BikeParking":"True","BusinessAcceptsCreditCards":"True","OutdoorSeating":"True","RestaurantsTakeOut":"True","Caters":"False","RestaurantsGoodForGroups":"True","Ambience":"{'romantic': False, 'intimate': False, 'classy': False, 'hipster': False, 'divey': False, 'touristy': False, 'trendy': False, 'upscale': False, 'casual': False}","WiFi":"'free'","GoodForKids":"True","RestaurantsAttire":"u'casual'","RestaurantsPriceRange2":"1","HasTV":"True","GoodForMeal":"{'dessert': False, 'latenight': False, 'lunch': False, 'dinner': False, 'brunch': False, 'breakfast': True}","BusinessParking":"{'garage': False, 'street': False, 'validated': False, 'lot': True, 'valet': False}","DriveThru":"True","RestaurantsReservations":"False","RestaurantsDelivery":"True"},"categories":"Fast Food, Restaurants, Food, Burgers, Coffee & Tea","hours":{"Monday":"0:0-0:0","Tuesday":"0:0-0:0","Wednesday":"0:0-0:0","Thursday":"0:0-0:0","Friday":"0:0-0:0","Saturday":"0:0-0:0","Sunday":"0:0-0:0"}}
{"business_id":"tVdJ7CgBGAQ_nLomYXbB-Q","name":"Cunningham Pest Control","address":"1125 W Chester Pike, Ste 178","city":"Havertown","state":"PA","postal_code":"19083","latitude":39.9727224,"longitude":-75.3154587,"stars":5.0,"review_count":5,"is_open":1,"attributes":{"BusinessAcceptsCreditCards":"True","ByAppointmentOnly":"True"},"categories":"Wildlife Control, Local Services, Pest Control","hours":{"Monday":"0:0-0:0","Tuesday":"0:0-0:0","Wednesday":"0:0-0:0","Thursday":"0:0-0:0","Friday":"0:0-0:0","Saturday":"0:0-0:0","Sunday":"0:0-0:0"}}
{"business_id":"x8KYhsxbufQiYIK-4MRzHQ","name":"West Coast Roofing","address":"910 S Santa Rita Ave","city":"Tucson","state":"AZ","postal_code":"85749","latitude":32.2104465,"longitude":-110.9535711,"stars":2.0,"review_count":13,"is_open":1,"attributes":{"BusinessAcceptsCreditCards":"True"},"categories":"Apartments, Roofing, Real Estate, Home Services","hours":{"Monday":"9:0-15:0","Tuesday":"9:0-15:0","Wednesday":"9:0-15:0","Thursday":"9:0-15:0","Friday":"9:0-15:0"}}
{"business_id":"3S9GYtMOYhbZl4MMPOHT0Q","name":"The Handlebar Boise","address":"1519 W Main St","city":"Boise","state":"ID","postal_code":"83702","latitude":43.62001,"longitude":-116.21279,"stars":4.5,"review_count":34,"is_open":1,"attributes":{"RestaurantsPriceRange2":"1","RestaurantsGoodForGroups":"True","Music":"{'dj': False, 'background_music': False, 'no_music': False, 'jukebox': False, 'live': False, 'video': False, 'karaoke': False}","Alcohol":"'beer_and_wine'","ByAppointmentOnly":"False","NoiseLevel":"'average'","Ambience":"{'touristy': False, 'hipster': False, 'romantic': False, 'divey': False, 'intimate': False, 'trendy': False, 'upscale': False, 'classy': False, 'casual': False}","DogsAllowed":"True","BusinessAcceptsCreditCards":"True","RestaurantsReservations":"True","Smoking":"u'outdoor'","GoodForDancing":"False","WiFi":"u'free'","BikeParking":"True","HappyHour":"True","BusinessParking":"{'garage': False, 'street': True, 'validated': False, 'lot': False, 'valet': False}","BYOB":"False","OutdoorSeating":"True","WheelchairAccessible":"True","HasTV":"False","CoatCheck":"False"},"categories":"Bars, Wine Bars, Nightlife, Beer Bar","hours":{"Monday":"0:0-0:0","Tuesday":"14:0-22:0","Wednesday":"14:0-22:0","Thursday":"14:0-22:0","Friday":"14:0-0:0","Saturday":"12:0-0:0","Sunday":"12:0-22:0"}}
{"business_id":"znL4YrNbA2uwOQ3CchkmEA","name":"Seaview Condominiums","address":"14700 Gulf Blvd","city":"Madeira Beach","state":"FL","postal_code":"33708","latitude":27.798503,"longitude":-82.7987502,"stars":4.5,"review_count":8,"is_open":1,"attributes":{"BusinessAcceptsCreditCards":"True"},"categories":"Home Services, Vacation Rentals, Real Estate, Condominiums, Hotels & Travel","hours":{"Monday":"0:0-0:0","Tuesday":"9:0-16:0","Wednesday":"9:0-16:0","Thursday":"9:0-16:0","Friday":"9:0-16:0","Saturday":"9:0-18:0","Sunday":"10:0-16:0"}}
{"business_id":"CtMEJxpVMlNzFpB4PtFjfA","name":"Aussie Grill","address":"25340 Sierra Center Blvd","city":"Lutz","state":"FL","postal_code":"33559","latitude":28.192191035,"longitude":-82.396367,"stars":4.0,"review_count":75,"is_open":1,"attributes":{"BYOB":"False","OutdoorSeating":"True","BusinessAcceptsCreditCards":"True","HasTV":"False","Caters":"True","RestaurantsTakeOut":"True","Alcohol":"u'beer_and_wine'","WheelchairAccessible":"True","RestaurantsDelivery":"True","RestaurantsTableService":"True"},"categories":"Restaurants, American (New), Burgers, Fast Food, Steakhouses","hours":{"Monday":"0:0-0:0","Tuesday":"11:0-21:0","Wednesday":"11:0-21:0","Thursday":"11:0-21:0","Friday":"11:0-21:0","Saturday":"11:0-22:0","Sunday":"11:0-21:0"}}
{"business_id":"O1oZpbZNDMH_gz8DhsZCdA","name":"Wendy's","address":"700 E. Hunting Park","city":"Philadelphia","state":"PA","postal_code":"19124","latitude":40.012141,"longitude":-75.1150148,"stars":1.5,"review_count":15,"is_open":1,"attributes":{"RestaurantsTakeOut":"True","RestaurantsPriceRange2":"1","OutdoorSeating":"False","RestaurantsAttire":"u'casual'","RestaurantsReservations":"False","GoodForKids":"True","RestaurantsGoodForGroups":"True","Alcohol":"u'none'","BusinessParking":"{'garage': False, 'street': False, 'validated': False, 'lot': False, 'valet': False}","BusinessAcceptsCreditCards":"True","RestaurantsDelivery":"True"},"categories":"Burgers, Restaurants, Fast Food","hours":{"Monday":"10:0-2:0","Tuesday":"10:0-2:0","Wednesday":"10:0-2:0","Thursday":"10:0-2:0","Friday":"10:0-2:0","Saturday":"10:0-2:0","Sunday":"10:0-2:0"}}
